stop_id,stop_name,stop_lat,stop_lon
80,Av Visconde De Cairu 252 - Jardim Silvina Sao Bernardo do Campo - SP 09791-100 Brasil,-23.738543,-46.535914
59,Estr. do Montanhao 180 - Ferrazopolis Sao Bernardo do Campo - SP 09791-250 Brasil,-23.738832,-46.529806
76,Estrada do Montanhao 611,-23.739216,-46.526327
36,Av. Getulio Vargas 373 - Baeta Neves Sao Bernardo do Campo - SP 09751-250 Brasil,-23.695088,-46.545909
66,Av Pedro Mendes - Montanhao Sao Bernardo do Campo - SP 09791-490 Brasil,-23.742984,-46.531542
57,Av. Gen. Barreto de Menezes 550 - Ferrazopolis Sao Bernardo do Campo - SP 09791-100 Brasil,-23.737559,-46.533644
77,Estrada do Montanhao 181,-23.738624,-46.529663
75,Estr. do Montanhao 38 - Montanhao Sao Bernardo do Campo - SP 09791-250 Brasil,-23.740852,-46.524556
55,R. Rolim de Moura 446 - Ferrazopolis Sao Bernardo do Campo - SP 09791-050 Brasil,-23.739945,-46.536453
81,Rua Rolim de Moura 125 - Jardim Silvina Sao Bernardo do Campo - SP 09791-050 Brasil,-23.739182,-46.537282
61,Estrada do Montanhao 850,-23.740939,-46.524705
4,Av. Rangel Pestana 252 - Jardim Cristiane Santo Andre - SP 09185-220 Brasil,-23.684318,-46.527843
24,Av. Taioca 2737 - Jardim Las Vegas Santo Andre - SP 09182-400 Brasil,-23.700951,-46.531618
14,Rua Prof. Antonio Seixas Leite Ribeiro 24 - Jardim Alvorada Santo Andre - SP 09180-110 Brasil,-23.702198,-46.52237
56,Av Visconde De Cairu 324 - Jardim Silvina Sao Bernardo do Campo - SP 09791-090 Brasil,-23.738842,-46.535865
50,Av. Dr. Jose Fornari 815 - Ferrazopolis Sao Bernardo do Campo - SP 09790-400 Brasil,-23.731664,-46.545389
6,Av. Rangel Pestana 600 - Jardim Cristiane Santo Andre - SP 09185-220 Brasil,-23.686808,-46.528423
54,Rua Dom Fernando Mascarenhas 100,-23.737484,-46.53746
78,Avenida General Barreto de Menezes 947,-23.738666,-46.531842
3,Rua Juquia 636 - Jardim Jamaica Santo Andre - SP 09185-220 Brasil,-23.68229,-46.529803
8,Avenida Rangel Pestana 3060,-23.688782,-46.531374
91109,Avenida Joao Paulo Ablas 1775,-23.612414,-46.838815
53,R. Afonso Furtado de Mendonca 208 - Jardim Silvina Sao Bernardo do Campo - SP 09791-000 Brasil,-23.736391,-46.537374
23,Rua Leonardo Fioravanti 217 - Jardim Las Vegas Santo Andre - SP 09182-470 Brasil,-23.699668,-46.528938
63,Av. Pedro Mendes 700 - Montanhao Sao Bernardo do Campo - SP 09791-490 Brasil,-23.74576,-46.527571
2, Rua Oswaldo Cruz 74,-23.680857,-46.533777
64,R. Sem Denominacao 922 - Montanhao Sao Bernardo do Campo - SP 09791-405 Brasil,-23.747547,-46.529247
9,Rua Saldanha da Gama 34,-23.690754,-46.530454
7,Avenida Rangel Pestana 814,-23.688108,-46.530024
29,R. Giacinto Tognato 1097 - Jardim Las Vegas Sao Bernardo do Campo - SP 09760-372 Brasil,-23.69737,-46.540281
10,Rua Saldanha da Gama 87 - Jardim Moncoes Santo Andre - SP 09180-290 Brasil,-23.691871,-46.529179
11,Rua Joanopolis 480,-23.696019,-46.525713
21,Rua Otavio Candido 465,-23.696503,-46.528146
31,Rua Giacinto Tognato 625 - Baeta Neves Sao Bernardo do Campo - SP 09751-400 Brasil,-23.693529,-46.540832
48,Avel - Jardim Silvina Sao Bernardo do Campo - SP 09790-400 Brasil,-23.726198,-46.549289
34,Av. Getulio Vargas 941 - Baeta Neves Sao Bernardo do Campo - SP 09751-250 Brasil,-23.691997,-46.544557
58,Av Gen Barreto de Menezes 884 - Jardim Silvina Sao Bernardo do Campo - SP 09791-000 Brasil,-23.73851,-46.53226
30,Rua Giacinto Tognato 819 - Baeta Neves Sao Bernardo do Campo - SP 09751-440 Brasil,-23.695485,-46.540534
26,Rua Giacinto Tognato 1767 - Baeta Neves Sao Bernardo do Campo - SP 09760-372 Brasil,-23.701355,-46.536131
82,Rua Dom Vasco Mascarenhas 117,-23.73678,-46.536488
25,Rua Belarminio Francisco Vasconcelos 442 - Baeta Neves Sao Bernardo do Campo - SP 14090-122 Brasil,-23.700899,-46.53475
79,Avenida General Barreto de Menezes 715,-23.737638,-46.533158
44842,Estrada Santa Ines 150,-23.374204,-46.660643
137,Parada Metropolitana Estela,-23.680991,-46.541187
138,Parada Metropolitana Gilda,-23.67645,-46.536669
140,Parada Metropolitana Santa Tereza ,-23.667505,-46.532316
142,Parada Metropolitana IV Centenario,-23.655493,-46.531358
162,Parada Metropolitana Faccini,-23.656368,-46.636396
128,Parada Metropolitana Cooperativas,-23.715116,-46.551742
157,Parada Metropolitana Santa Adelia,-23.620995,-46.478388
169,Terminal Metropolitano Diadema ,-23.684261,-46.626724
167,Parada Metropolitana Divisa,-23.673778,-46.630955
163,Parada Metropolitana Americanopolis,-23.661466,-46.637402
168,Parada Metropolitana Assembleia,-23.67746,-46.627579
107,Rua Giacinto Tognato 1814 - Baeta Neves Sao Bernardo do Campo - SP 09760-372 Brasil,-23.701795,-46.535659
160,Parada Metropolitana Cidade Vargas,-23.649392,-46.640572
164,Parada Metropolitana Sao Jose,-23.665359,-46.63805
145,Parada Metropolitana Lituania,-23.641242,-46.521389
146,Parada Metropolitana Bonfim,-23.638768,-46.519127
147,Parada Metropolitana Parque das Nacoes ,-23.636272,-46.515729
148,Parada Metropolitana Timor,-23.633892,-46.512165
149,Parada Metropolitana Manila,-23.6318,-46.510926
150,Parada Metropolitana Angola,-23.628281,-46.509822
151,Parada Metropolitana Nevada,-23.62726,-46.504831
152,Parada Metropolitana Cidade dos Meninos,-23.62601,-46.501481
105,R. Giacinto Tognato 955 - Baeta Neves Sao Bernardo do Campo - SP 09760-371 Brasil,-23.696434,-46.540662
155,Parada Metropolitana Nestor de Barros,-23.624767,-46.48732
156,Parada Metropolitana Sonia Maria,-23.623632,-46.480838
141,Parada Metropolitana Alfredo Flaquer,-23.660579,-46.529767
127,Parada Metropolitana Brasil,-23.71785,-46.551222
132,Terminal Metropolitano Sao Bernardo do Campo,-23.698424,-46.552301
101,Av Getulio Vargas 498 - Baeta Neves Sao Bernardo do Campo - SP 09751-250 Brasil,-23.695531,-46.544971
143,Parada Metropolitana Itamarati,-23.647235,-46.524819
153,Parada Metropolitana Santo Alberto,-23.626061,-46.496181
139,Parada Metropolitana Paraiso,-23.670801,-46.535497
109,Av. Taioca 2920 - Jardim Las Vegas Santo Andre - SP 09182-400 Brasil,-23.701578,-46.529896
136,Parada Metropolitana Pilar,-23.683057,-46.545242
104,Rua Giacinto Tognato 484592 - Baeta Neves Sao Bernardo do Campo - SP 09751-400 Brasil,-23.69293,-46.541321
135,Parada Metropolitana Baeta Neves,-23.687567,-46.547587
110,Rua Otavio Candido 510 - Jardim Las Vegas Santo Andre - SP 09182-710 Brasil,-23.696692,-46.528095
111,Rua Lavinia 189 - Jardim Alvorada Santo Andre - SP 09182-200 Brasil,-23.697069,-46.526404
119,Rua Aluisio Coimbra 352 - Jardim Moncoes Santo Andre - SP 09180-290 Brasil,-23.689766,-46.53017
121,Avenida Rangel Pestana 801,-23.687821,-46.529031
115,Rua Dr. Nelo Rosate 69 - Jardim Alvorada Santo Andre - SP 09180-090 Brasil,-23.696561,-46.524445
144,Parada Metropolitana Bangu,-23.644756,-46.523432
91110,Avenida Joao Paulo Ablas 1625,-23.611118,-46.839156
118,Rua Saldanha da Gama 194,-23.690951,-46.529938
122, Avenida Rangel Pestana 517-569,-23.686189,-46.527431
124,Av. Rangel Pestana 119 - Jardim Cristiane Santo Andre - SP 09185-220 Brasil,-23.683788,-46.528234
134,Parada Metropolitana Getulio Vargas,-23.691605,-46.548341
129,Parada Metropolitana Lauro Gomes ,-23.712332,-46.552059
123,Avenida Rangel Pestana 403,-23.685126,-46.526623
170,Parada Metropolitana Castelo Branco,-23.686454,-46.624678
165,Parada Metropolitana Bom Clima,-23.669129,-46.634846
166,Parada Metropolitana Vila Clara,-23.67062,-46.632636
161,Parada Metropolitana Encontro,-23.652838,-46.637207
114,Rua Dr. Nelo Rosate 103 - Jardim Alvorada Santo Andre - SP 09180-090 Brasil,-23.69798,-46.523657
221,Rodovia Raposo Tavares km 264,-23.598051,-46.857751
174,Rua 12 de Outubro 68 - Jardim Concordia Diadema - SP 09920-575 Brasil,-23.68334,-46.60507
212,Rodovia Raposo Tavares km 312,-23.600278,-46.90089
179,Terminal Metropolitano Piraporinha,-23.691834,-46.584735
216,Alameda Tuca - Rio Cotia Cotia - SP 06716-190 Brasil,-23.599919,-46.887115
223,Rodovia Raposo Tavares km 253,-23.599025,-46.85024
201,Estrada do Morro Grande 73 - UPA Atalaia,-23.608015,-46.946212
196,Estrada do Morro Grande 3000 - Thermas da Mata,-23.623641,-46.952235
189,Parada Metropolitana Matriz ,-23.707683,-46.552718
195,Rua Ciro Monteiro 880 - Escola Municipal Samuel da Silva Filho,-23.618305,-46.952899
198,Estrada do Morro Grande 2424,-23.619016,-46.948185
231,Rodovia Raposo Tavares km 210,-23.590389,-46.814094
44852,Av. Santa Ines 4086,-23.344508,-46.661603
178,Parada Metropolitana Bela Vista,-23.689444,-46.590589
194,Rua Ciro Monteiro - Ponto Final do Mirante da Mata,-23.612647,-46.955714
93069,SP-066 Rod. Henrique Eroles km 727 oeste - Luiz Carlos Guararema - SP 08900-000 Brasil,-23.426498,-46.06076
183,Parada Metropolitana Planalto,-23.689748,-46.569026
210,Avenida Marginal da Raposo Tavares - Parada Portao II - Leste,-23.601732,-46.908378
27978,Rua Vicente Rodrigues da Silva 986 - Piratininga Osasco - SP 06230-098 Brasil,-23.515671,-46.798299
187,Terminal Metropolitano Sao Bernardo do Campo,-23.69819,-46.552169
180,Parada Metropolitana Bom Jesus,-23.691737,-46.581343
185,Parada Metropolitana Vera Cruz,-23.69147,-46.557333
172,Parada Metropolitana Orense,-23.686149,-46.618577
173,Parada Metropolitana Imigrantes,-23.685916,-46.613729
208,Avenida Professor Jose Barreto 1010,-23.60351,-46.918067
237,Rodovia Raposo Tavares km 171 leste - Jardim Claudia Sao Paulo - SP 05577-200 Brasil,-23.583914,-46.779253
218,Rodovia Raposo Tavares km 279,-23.595274,-46.874745
222,Rodovia Raposo Tavares km 260,-23.598767,-46.854573
225,Rodovia Raposo Tavares km 242,-23.597005,-46.840881
89890,Rua Bom Jesus 555 - Res. Forte Ville Cerquilho - SP 18520-000 Brasil,-23.170957,-47.73594
192,Parada Metropolitana Brasil ,-23.717612,-46.551339
188,Parada Metropolitana Djalma Dutra,-23.703224,-46.55255
244,Rodovia Raposo Tavares km 120 - Habibs,-23.581677,-46.730974
236,Rod. Raposo Tavares km 179 leste ,-23.584733,-46.786706
213,Rodovia Raposo Tavares km 299,-23.59984,-46.897625
47667,Av. Doutor Roberto Almeida Vinhas 4027 - Aviacao Praia Grande - SP 11721-000 Brasil,-24.013191,-46.450639
247,Rodovia Raposo Tavares km 103,-23.575751,-46.717644
211,Avenida Marginal da Raposo Tavares - Praca Japonesa,-23.60131,-46.906526
245,Rodovia Raposo Tavares km 113,-23.578196,-46.725932
228,Rodovia Raposo Tavares km 226,-23.590539,-46.82869
191,Parada Metropolitana Cooperativas ,-23.714707,-46.551804
234,Rodovia Raposo Tavares km 186,-23.588146,-46.792865
227,Rodovia Raposo Tavares km 232 - Shopping Granja Viana,-23.591767,-46.833515
209,Avenida Marginal da Raposo Tavares - Parada Portao I - Leste,-23.602847,-46.912725
255,Avenida Teresina 145,-23.991145,-46.47399
214,Rodovia Raposo Tavares km 293,-23.599043,-46.892212
239,Rodovia Raposo Tavares - SP 270 km 160 - Decathlon,-23.584382,-46.768315
200,Estrada do Morro Grande (Oposto ao n 622),-23.610728,-46.948516
219,Rodovia Raposo Tavares - Rio Cotia Cotia - SP 06709 Brasil,-23.595685,-46.868341
204,Avenida Professor Joaquim Barreto 37,-23.603702,-46.935388
215,Alameda Tuca 483 - Rio Cotia Cotia - SP 06716-190 Brasil,-23.599536,-46.888949
190,Parada Metropolitana Lauro Gomes ,-23.711791,-46.552221
230,Rodovia Raposo Tavares km 216,-23.591305,-46.818798
206,Rua Guido Fecchio (Oposto ao n 579),-23.605202,-46.928677
224,Rodovia Raposo Tavares km 248,-23.600109,-46.845828
207,Rua Engenheiro Leon Psanquevich 92,-23.605211,-46.925883
94224,Estr. do Bom Tempo 346 - Recanto da Lapa Franco da Rocha - SP 07810-500 Brasil,-23.325623,-46.764229
175,Parada Metropolitana Alice,-23.679952,-46.599551
181,Parada Metropolitana Industrias,-23.690417,-46.577135
176,Parada Metropolitana Lidia,-23.682054,-46.595195
177,Parada Metropolitana Nogueira,-23.686102,-46.592973
93618,Rua Desembargador Isnard dos Reis 6 - Cidade Kemel Sao Paulo - SP 08130-000 Brasil,-23.500582,-46.368801
95480,Alameda Antuerpia 354 - Recanto Phrynea Barueri - SP 06437-030 Brasil,-23.542275,-46.887839
197,Estr. Morro Grande 2111 - Jardim Isis Cotia - SP 06719-500 Brasil,-23.623017,-46.950252
254,Avenida Teresina (oposto ao n 300),-23.991899,-46.476298
44853,SP-023 km 487 leste - Mairipora SP 07600-000 Brasil,-23.337496,-46.658051
274,Avenida Antonio Emmerich 504 ,-23.961461,-46.377923
309,Avenida Perimetral 2077,-23.951745,-46.313639
11320,Av. Dr. Decio de Toledo Leite 235 - Jardim das Oliveiras Sao Paulo - SP 08111-220 Brasil,-23.488268,-46.381779
334,Parada Metropolitana Alfredo Flaquer ,-23.660791,-46.529904
338,Parada Metropolitana Estela ,-23.680702,-46.540741
285,Avenida Nossa Senhora de Fatima 551,-23.941983,-46.365784
339,Parada Metropolitana Pilar ,-23.682757,-46.544399
336,Parada Metropolitana Paraiso ,-23.670381,-46.535271
341,Parada Metropolitana Getulio Vargas ,-23.691299,-46.548312
315,Avenida Senador Dantas 436-B,-23.967151,-46.314395
262,Av. Quarentenario 189 - Quarentenario Sao Vicente - SP 11347-520 Brasil,-23.981905,-46.454883
2009,Avenida Joao Paulo Ablas 667 - Condominio Residencial Jardim da Gloria III,-23.602737,-46.840131
294,Avenida Martins Fontes 815 (Cemiterio da Filosofia),-23.930665,-46.346852
295,Avenida Martins Fontes 225,-23.929929,-46.34117
302,Av. Sao Francisco 288 - Centro Santos - SP 11013-202 Brasil,-23.938058,-46.322879
322,Avenida Doutor Pedro Lessa 751,-23.976915,-46.300659
323,Praca Primeiro de Maio,-23.97838,-46.300301
89893,R. Rio Grande do Sul 27 - Recanto da Colina Cerquilho - SP 18520-346 Brasil,-23.169019,-47.726906
306,Rua Doutor Cochrane (oposto ao n 24),-23.934774,-46.317872
324,Avenida Professor Aristoteles de Menezes 278-358 ,-23.980102,-46.300193
307,Rua Xavier da Silveira 1230 - Paqueta Santos - SP 11013-050 Brasil,-23.934431,-46.316853
26705,R. Dr. Ernesto Vergara 1177 - Vila Assuncao Praia Grande - SP 11704-030 Brasil,-24.019549,-46.473955
308,Avenida Perimetral 1115-1367 ,-23.941582,-46.317395
269,Rua Jacob Emmerich 1151 - Parque Bitaru,-23.965068,-46.391992
317,Avenida Doutor Pedro Lessa 1907,-23.970478,-46.310156
333,Parada Metropolitana IV Centenario,-23.656454,-46.531813
286,Avenida Nossa Senhora de Fatima 495,-23.940539,-46.364631
311,Avenida Senador Dantas (oposto ao n 161) (Estacao Porto do VLT),-23.956926,-46.313406
276,Avenida Antonio Emmerich 1170,-23.956427,-46.375355
297,Avenida Pres. Getulio Dornelles Vargas 501,-23.933845,-46.33604
288,Avenida Nossa Senhora de Fatima 271,-23.934779,-46.361184
325,Praca Engenheiro Jose Reboucas 22,-23.98184,-46.300773
326,Avenida Governador Fernando Costa 268 ,-23.983918,-46.298285
312,Avenida Senador Dantas (oposto ao n 259),-23.959445,-46.313653
335,Parada Metropolitana Santa Tereza,-23.666906,-46.531956
275,Avenida Antonio Emmerich 832,-23.959287,-46.376326
281,Avenida Nossa Senhora de Fatima 899,-23.948689,-46.371182
318,Avenida Doutor Pedro Lessa 1609 ,-23.972375,-46.307383
320,Avenida Doutor Pedro Lessa 1163,-23.974722,-46.303904
282,Avenida Nossa Senhora de Fatima 817,-23.946527,-46.369459
260,Av. Quarentenario 705 - Quarentenario Sao Vicente - SP 11347-420 Brasil,-23.983699,-46.459967
313,Avenida Senador Dantas 330,-23.961961,-46.313903
319,Avenida Doutor Pedro Lessa 1413,-23.973421,-46.305828
301,Praca Patriarca Jose Bonifacio (Forum) 55,-23.937558,-46.325099
314,Avenida Senador Dantas 392,-23.964925,-46.314199
284,Avenida Nossa Senhora de Fatima 625,-23.943733,-46.367196
292,Avenida Martins Fontes 1441,-23.930528,-46.352435
299,Praca Correia de Mello 40 (Colegio Barnabe),-23.937094,-46.327961
273,Avenida Antonio Emmerich 292,-23.962578,-46.37982
1039,Av. Vital Brasil 600 - Vila Acoreana Poa - SP 08557-000 Brasil,-23.514814,-46.342243
305,Rua Doutor Cochrane (oposto ao n 132) (Cemiterio Paqueta),-23.937966,-46.318646
304,Avenida Sao Francisco 420 ,-23.938762,-46.319388
337,Parada Metropolitana Gilda ,-23.676083,-46.536589
94227,Av. Otavio Spigarolo 238 - Vila Rosina Caieiras - Sp 07700-000 Brasil - Vila Rosina Caieiras - SP 07700-000 Brasil,-23.383483,-46.737864
93070,Rodovia Henrique Eroles 6980 - Luiz Carlos Guararema - SP 08900-000 Brasil,-23.431713,-46.063109
95481,Alameda Antuerpia 456 - Recanto Phrynea Barueri - SP 06437-030 Brasil,-23.542249,-46.888905
411,Rodovia Raposo Tavares km 105,-23.575697,-46.719359
370,Avenida Australia 366,-23.709446,-46.856427
381,Rodovia Armando Salles 710,-23.715217,-46.841153
382,Rodovia Armando Salles 1350 - Parada Mello,-23.712463,-46.837573
413,Rodovia Raposo Tavares km 113,-23.577818,-46.725796
394,Estrada de Itapecerica 8393,-23.681313,-46.796389
421,Rodovia Raposo Tavares km 150,-23.586353,-46.756035
357,Parada Metropolitana Imigrantes,-23.685858,-46.613705
359,Parada Metropolitana Manoel da Nobrega ,-23.686436,-46.621597
376,Avenida Eduardo Roberto Daher 161,-23.714995,-46.853273
397,Estrada de Itapecerica 7331,-23.676315,-46.790147
383,Rodovia Armando Salles 2337 - Parada Imperatriz,-23.708632,-46.83175
398,Estrada de Itapecerica 7115,-23.6746,-46.788037
400,Estr. de Itapecerica 6395 - Conj. Hab. Instituto Adventista Sao Paulo - SP 06882-700 Brasil,-23.669378,-46.785161
423,Rodovia Raposo Tavares km 161,-23.584768,-46.766702
401,Estrada de Itapecerica 5859 - UNASP,-23.665896,-46.783041
89898,R. Nossa Sra. Aparecida 481 - Res. Forte Ville Cerquilho - SP 18520-083 Brasil,-23.165968,-47.736401
402,Estr. de Itapecerica 5749 - Jardim Amalia Sao Paulo - SP 05858-001 Brasil,-23.663989,-46.781958
95482,Alameda Leningrado 179 - Recanto Phrynea Barueri - SP 06437-000 Brasil,-23.541841,-46.890094
10916,Av. Dr. Roberto de Almeida Vinhas 5507 - Vila Tupi Praia Grande - SP 11707-520 Brasil,-24.016766,-46.465018
343,Parada Metropolitana Jardim do Mar ,-23.693628,-46.553749
365,Parada Metropolitana Sao Jose,-23.665607,-46.63793
384,Rodovia Armando Salles 2558 - Parada Coco Verde,-23.704964,-46.829324
416,Rua Azem Abdalla Azem 626,-23.584052,-46.736882
408,Rua Alvarenga 1135,-23.571983,-46.711527
372,Rua Estados Unidos 261,-23.703277,-46.857379
424,Rodovia Raposo Tavares km 164 - Avenida Escola Politecnica,-23.582781,-46.772827
351,Parada Metropolitana ETEC/FATEC/SENAI,-23.695035,-46.550343
373,Av. Argentina 423 - Parque Paraiso Itapecerica da Serra - SP 06852-490 Brasil,-23.705692,-46.859098
415,Rodovia Raposo Tavares km 123 - Acesso ao Jardim Bonfiglioli,-23.582576,-46.733558
405,Estrada de Itapecerica 4765,-23.659872,-46.773968
374,Rua Maranhao 235 - Parque Paraiso Itapecerica da Serra - SP 06852-370 Brasil,-23.710519,-46.858337
366,Parada Metropolitana Americanopolis ,-23.661465,-46.63731
367,Parada Metropolitana Faccini ,-23.657035,-46.636194
350,Terminal Metropolitano Piraporinha,-23.691523,-46.585014
368,Parada Metropolitana Encontro,-23.652764,-46.637136
369,Parada Metropolitana Cidade Vargas,-23.649378,-46.640475
30346,R. Jussara 2198 - Jardim Mutinga Barueri - SP 06465-070 Brasil,-23.513427,-46.813604
418,R. Ari Aps 368,-23.584794,-46.742845
399,Estr. de Itapecerica 6555 - Conj. Hab. Instituto Adventista Sao Paulo - SP 05858-003 Brasil,-23.670779,-46.786334
344,Parada Metropolitana Vera Cruz,-23.691518,-46.557045
391,Rodovia Armando Salles 6277,-23.686239,-46.801869
428,Rod. Raposo Tavares - R. Cachoeira Poraque - Conj. Promorar Raposo Tavares Sao Paulo - SP 05576-200 Brasil,-23.589492,-46.796159
94229,R. Vicente Lisa 204-216 - Vila Rosina Caieiras - Sp 07700-000 Brasil - Vila Rosina Caieiras - SP 07749-220 Brasil,-23.387212,-46.739529
375,Avenida Eduardo Roberto Daher 777,-23.712145,-46.856051
410,Rodovia Raposo Tavares km 102,-23.574569,-46.71647
393,Estrada de Itapecerica (Oposto n 888),-23.683888,-46.79795
91111,Avenida das Flores 80,-23.711803,-46.807442
93071,SP-066 Rod. Henrique Eroles km 693 oeste - Luiz Carlos Guararema - SP 08900-000 Brasil - Luiz Carlos Guararema - SP 08900-000 Brasil,-23.451401,-46.066356
427,Rodovia Raposo Tavares km 182,-23.585758,-46.789417
379,Rua Treze de Maio 206,-23.718976,-46.846988
11325,Rua Joao Batista de Godoi 978 - Jardim Meliunas Sao Paulo - SP 08111-430 Brasil,-23.49621,-46.371639
345,Parada Metropolitana Anchieta,-23.689511,-46.562858
346,Parada Metropolitana Planalto ,-23.689712,-46.568731
349,Parada Metropolitana Bom Jesus ,-23.691729,-46.581421
362,Parada Metropolitana Divisa ,-23.673708,-46.630883
354,Parada Metropolitana Lidia ,-23.681618,-46.595288
355,Parada Metropolitana Alice ,-23.679652,-46.599222
363,Parada Metropolitana Vila Clara ,-23.670556,-46.632583
94231,R. Nelsom Rosseti 121 - Vila Rosina Caieiras - Sp 07700-000 Brasil - Vila Rosina Caieiras - SP 07749-235 Brasil,-23.388041,-46.741043
479,Avenida Doutor Pedro Lessa 1082,-23.975045,-46.303135
477,Avenida Doutor Pedro Lessa 416,-23.978646,-46.297803
47093,Av. Doutor Roberto de Almeida Vinhas 255 - Balneario Pires Praia Grande - SP 11721-000 Brasil,-24.014137,-46.454626
435,Rodovia Raposo Tavares km 229,-23.589519,-46.830649
430,Rodovia Raposo Tavares km 196,-23.592359,-46.80163
509,Avenida Martins Fontes (oposto ao n 793) - Santos,-23.930111,-46.346598
434,Rodovia Raposo Tavares km 221 - Open Mall The Square,-23.590487,-46.823718
432,Rodovia Raposo Tavares km 208,-23.590878,-46.812602
444,Rodovia Raposo Tavares km 280,-23.595257,-46.875988
446,Rua Giulio Torres 21,-23.599005,-46.888594
453,Avenida Professor Jose Barreto 1217 - Atacadao,-23.603001,-46.917253
441,Rodovia Raposo Tavares km 262,-23.597145,-46.858798
431,Rodovia Raposo Tavares km 201,-23.592762,-46.806138
429,Rodovia Raposo Tavares km 193 - Viaduto Aires Fernandino Barreto,-23.591189,-46.798961
443,Rodovia Raposo Tavares km 273,-23.595518,-46.869863
455,Avenida Professor Jose Barreto - Praca Joaquim Nunes,-23.604906,-46.925944
449,Rod. Raposo Tavares km 307 oeste - Jardim Sabia Cotia - SP 06703 Brasil,-23.599748,-46.899162
452,Rua Prof. Jose Barreto 1635,-23.60237,-46.912601
448,Rodovia Raposo Tavares km 304,-23.599322,-46.895931
454,Rua Prof. Jose Barreto 817 - Village Materiais para Construcao - Jardim Dinorah Cotia - SP 06703-000 Brasil,-23.603194,-46.920579
517,Avenida Nossa Senhora de Fatima 590,-23.943291,-46.367094
503,Rua Joao Pessoa 11 - Santos,-23.934277,-46.329927
437,SP-270 Rod. Raposo Tavares km 237 oeste - Lageadinho Cotia - SP 06709-015 Brasil,-23.593749,-46.838245
465,Parada Metropolitana Santo Alberto,-23.62603,-46.495676
486,Avenida Senador Dantas 341 ,-23.962276,-46.313793
493,Rua Joao Pessoa 431,-23.936402,-46.319554
487,Avenida Senador Dantas 235,-23.959071,-46.313482
491,Avenida Perimetral 1370-1382,-23.940944,-46.316947
506,Avenida Visconde de Sao Leopoldo 584 ,-23.932174,-46.336256
492,Rua Joao Pessoa 541,-23.936938,-46.316819
514,Av. Nossa Senhora de Fatima 374 - Chico de Paula Santos - SP 11085-202 Brasil,-23.936319,-46.36287
507,Avenida Visconde de Sao Leopoldo 440 - Santos ,-23.931436,-46.337713
438,Rodovia Raposo Tavares km 249,-23.599927,-46.84651
478,Avenida Doutor Pedro Lessa 668,-23.977232,-46.299879
485,Avenida Senador Dantas 395,-23.964902,-46.314058
461,Terminal Metropolitano Sonia Maria,-23.624499,-46.480834
458,Avenida Professor Joaquim Barreto 616,-23.604702,-46.938249
515,Avenida Nossa Senhora de Fatima 456,-23.93983,-46.364499
464,Parada Metropolitana Ana Maria,-23.625813,-46.491045
512,Avenida Nossa Senhora de Fatima 155,-23.933082,-46.358434
445,Rodovia Raposo Tavares km 285,-23.596734,-46.880821
488,Avenida Senador Dantas 161 (Estacao Porto do VLT),-23.956796,-46.313246
456,Rua Lopes de Camargo (Oposto n 14),-23.603498,-46.929723
450,Rodovia Raposo Tavares km 310,-23.600176,-46.902672
483,Av. Dr. Pedro Lessa 2158 - Ponta da Praia Santos - SP 11025-002 Brasil,-23.969275,-46.311674
91112,Rua Floriano Peixoto 25,-23.70758,-46.805859
508,Av. Martins Fontes 197 - Porto Saboo Santos - SP 11010-250 Brasil,-23.929476,-46.341445
439,Rod. Raposo Tavares km 251 oeste - Jardim Passargada I Cotia - SP 06708-070 Brasil,-23.59892,-46.848528
466,Parada Metropolitana Cidade dos Meninos ,-23.625859,-46.501106
505,Avenida Visconde de Sao Leopoldo 434,-23.932844,-46.334919
467,Parada Metropolitana Nevada,-23.627223,-46.50472
468,Parada Metropolitana Angola ,-23.628559,-46.510041
469,Parada Metropolitana Manila,-23.631054,-46.5108
470,Parada Metropolitana Timor,-23.633764,-46.512152
471,Parada Metropolitana Parque das Nacoes,-23.636395,-46.516109
472,Parada Metropolitana Bonfim,-23.63878,-46.519243
473,Parada Metropolitana Lituania,-23.641149,-46.5214
474,Parada Metropolitana Bangu,-23.644262,-46.523279
475,Parada Metropolitana Itamarati,-23.647278,-46.52486
462,Parada Metropolitana Sonia Maria,-23.62371,-46.481107
459,Avenida Professor Joaquim Barreto 1180,-23.606864,-46.944026
482,Avenida Doutor Pedro Lessa 1764,-23.971397,-46.308538
463,Rua do Oratorio 5535,-23.624813,-46.488366
484,Avenida Doutor Pedro Lessa 2414,-23.967901,-46.313731
90561,Praca Antonio Cecato (norte) - Centro Sao Bernardo do Campo - SP 09750 Brasil,-23.687389,-46.553306
476,Terminal Metropolitano Santo Andre Leste,-23.65159,-46.526743
27981,Avenida Edmundo Amaral 345 - Piratininga Osasco - SP 06230-150 Brasil,-23.51529,-46.803275
551,Parada Metropolitana Assembleia,-23.677281,-46.627542
593,Avenida Brasil Ferraz de Vasconcelos - Sao Paulo 08564 Brasil - Jardim Ferrazense Ferraz de Vasconcelos - SP 08529-310 Brasil,-23.535659,-46.357327
11329,R. Des. Octavio Egydio Roggiero 301 - Cidade Kemel Sao Paulo - SP Brasil,-23.510524,-46.368442
561,Rua Bolivia 170 - Jardim America Poa - SP 08555-640 Brasil,-23.510898,-46.354565
522,Avenida Antonio Emmerich 1513,-23.952767,-46.374287
523,Avenida Antonio Emmerich 1313,-23.954642,-46.374935
587,Avenida Prefeito Jorge Francisco Correia Allen 103 Poa - Sao Paulo 08561 Brasil - Centro Poa - SP 08562-000 Brasil,-23.526099,-46.344533
589,Avenida Lucas Nogueira Garcez 357 Poa - Sao Paulo 08565 Brasil - Vila Santa Maria Poa - SP 08563-100 Brasil,-23.532509,-46.349339
601,R. Tiburcio De Souza 3200 - Jardim Laura Sao Paulo - SP 08140-000 Brasil,-23.520604,-46.386868
538,Avenida Martins Fontes 1234,-23.961849,-46.394618
520,Avenida Nossa Senhora de Fatima (oposto ao n 921),-23.9495,-46.372124
525,Avenida Antonio Emmerich 759,-23.959628,-46.37669
519,Av. Nossa Senhora de Fatima 870 ,-23.9475,-46.370481
539,Av. Martins Fontes 1440,-23.961672,-46.396122
526,Avenida Antonio Emmerich 469,-23.961619,-46.378597
537,R. Frei Gaspar 1429 - Parque Bitaru Sao Vicente - SP 11340-000 Brasil,-23.962473,-46.392571
521,Avenida Nossa Senhora de Fatima 1440,-23.950763,-46.373145
555,Terminal Metropolitano Santo Andre Oeste,-23.652628,-46.529011
91113,Rua Floriano Peixoto 3,-23.705524,-46.805658
553,Parada Metropolitana ETEC/FATEC/SENAI,-23.69434,-46.549942
597,Avenida Presidente Tancredo de Almeida Neves Ferraz de Vasconcelos - Sao Paulo 08670 Brasil - Jardim Tv Ferraz de Vasconcelos - SP 08532-220 Brasil,-23.535407,-46.376221
603,R. Tiburcio De Souza 2611 - Chacara Dona Olivia Sao Paulo - SP 08140-000 Brasil,-23.517705,-46.38835
558,Rua Alcantara 29 - Cidade Kemel Poa - SP 08554-200 Brasil,-23.515626,-46.35972
596,Rua Godofredo Novaes Ferraz de Vasconcelos - Sao Paulo 08530 Brasil - Vila Central Ferraz de Vasconcelos - SP 08530-300 Brasil,-23.540453,-46.368296
529,Rua Benjamin Constant 66,-23.963809,-46.384509
524,Avenida Antonio Emmerich 877,-23.958602,-46.376326
545,Rua Jose Rodrigues Martins 215,-23.98896,-46.486287
552,Parada Metropolitana Bom Clima,-23.669118,-46.634542
543,Rua Jose Ventura da Silva 1-69 - Vila Ema Sao Vicente - SP 11345-285 Brasil,-23.990697,-46.491029
518,Avenida Nossa Senhora de Fatima 828,-23.9458,-46.369132
527,Avenida Antonio Emmerich 245,-23.962759,-46.380555
544,Rua Narciso Vital de Carvalho 53,-23.987742,-46.488173
536,Avenida Capitao-Mor Aguiar 686,-23.965151,-46.391481
95483,Rua Adonilson Alves Ferreira 170 - Recanto Phrynea Barueri - SP 06437-160 Brasil,-23.542372,-46.890545
605,Rua Tiburcio de Sousa 1624 - Itaim Paulista Sao Paulo - SP 08140-000 Brasil,-23.513968,-46.39103
582,Rua Pref. Francisco Rodrigues Filho 480 - Centro Poa - SP 08560-010 Brasil,-23.528154,-46.338925
566,Av. Vital Brasil 936 - Parada Colinas - Jardim Medina Poa - SP 08557-505 Brasil,-23.511615,-46.345321
567,Av. Vital Brasil 857 - Jardim Medina Poa - SP 08557-505 Brasil,-23.512846,-46.343833
574,Rua Herculano Duarte Ribas - Estacao CPTM Poa - Centro Poa - SP 08550-130 Brasil,-23.525368,-46.34372
579,Avenida Fernando Rossi Poa - Sao Paulo 08559 Brasil - Vila Jau Poa - SP 08559-120 Brasil,-23.518752,-46.335015
89906,Rua Dr. Campos 770 - Jardim Nossa Sra. de Lurdes Cerquilho - SP 18520-000 Brasil,-23.156948,-47.741911
595,Rua Godofredo Novaes Ferraz de Vasconcelos - Sao Paulo 08501 Brasil - Vila Maria Rosa Ferraz de Vasconcelos - SP 08502-005 Brasil,-23.538422,-46.365494
581,Rua Prefeito Franscisco Rodrigues Filho 150 - Centro Poa - SP 08561-200 Brasil,-23.525671,-46.340795
564,Rua Uruacu 37 - Jardim Violeta Poa - SP 08555-550 Brasil,-23.507983,-46.346942
94233,R. Nelson Rosetti 140 - Vila Rosina Caieiras - SP 07749-235 Brasil,-23.388011,-46.74112
559,Rua Quintino Bocaiuva 561 - Vila Aurea Poa - SP 08555-300 Brasil,-23.513081,-46.356591
585,Av. Brasil 660 - Calmon Viana Poa - SP 08561-000 Brasil,-23.523819,-46.33805
565,Av. Vital Brasil 1251 - Jardim Violeta Poa - SP 08557-505 Brasil,-23.510365,-46.346034
568,Av. Vital Brasil 635 - Jardim Medina Poa - SP 08557-340 Brasil,-23.514365,-46.342565
572,R. Mal. Floriano Peixoto 93 - Centro Poa - SP 08550-010 Brasil,-23.524534,-46.344997
557,Rua Alcantara 305 - Cidade Kemel Poa - SP 08554-140 Brasil,-23.514045,-46.361785
626,Rodovia Raposo Tavares - SP 270 km 345,-23.601755,-46.935342
652,R. Dr. Jose Silvio De Camargo 390 - Eldorado Sao Paulo - SP 04476-190 Brasil,-23.708474,-46.628933
661,Rua Presidente Prudente 290,-23.724583,-46.618131
655,Estr. Do Alvarenga 5124 - Eldorado Sao Paulo - SP 04474 Brasil,-23.716262,-46.633181
671,Estr. dos Alvarengas 11205 - Acampamento do Instituto de Engenharia - Alvarenga Sao Bernardo do Campo - SP 09857 Brasil,-23.747588,-46.631887
640,R. Sao Judas 16 - Jardim Sao Marcos Vargem Grande Paulista - SP 06673-610 Brasil,-23.594429,-47.015754
619,Av. Eliseu De Almeida 1650 - Jardim Peri Peri Sao Paulo - SP 05537-160 Brasil,-23.584233,-46.727809
644,Av. Alda 482 - Centro Diadema - SP 04476-240 Brasil,-23.690785,-46.627628
679,Estr. Pedreira Alvarenga 1336 - Eldorado Diadema - SP 09971-340 Brasil,-23.72644,-46.624803
630,Rodovia Raposo Tavares - SP 270 km 387,-23.614996,-46.971969
678,Estr. Pedreira-Alvarenga - Eldorado Diadema - SP 09972-005 Brasil,-23.734341,-46.627943
642,Parada Metropolitana Paco ,-23.697348,-46.552578
631,SP-270 Rod. Raposo Tavares km 405 oeste,-23.612657,-46.988349
623,Avenida Ministro Laudo Ferreira De Camargo 340,-23.586739,-46.736953
656,Estrada do Alvarenga (oposto ao n 5460),-23.716883,-46.629581
657,Estrada do Alvarenga (oposto ao n 6421),-23.715958,-46.626306
681,Rua Joao Antonio de Araujo 186 - Eldorado Diadema - SP 09972-001 Brasil,-23.723937,-46.623166
666,Rua Joao Antonio de Araujo - R. Cacao 184 - Eldorado Diadema - SP 09971-300 Brasil,-23.724747,-46.624573
668,Estr. Pedreira-Alvarenga - Eldorado Diadema - SP 09971-430 Brasil,-23.734292,-46.62814
649,Av. Alda 1893 - Jardim Tiradentes Diadema - SP 04476-240 Brasil,-23.701737,-46.626902
686,Av. Pres. Prudente 251-325 - Eldorado Diadema - Sao Paulo 09972-300 Brasil - Eldorado Diadema - SP 09972-300 Brasil,-23.724841,-46.617907
676,Estr. dos Alvarengas 10018 - Alvarenga Sao Bernardo do Campo - SP 09850-550 Brasil,-23.744437,-46.631653
637,Av. Elias Alves da Costa 520,-23.60506,-47.0197
670,Av. Juarez Tavora 44 - Sitio Jandaia Sao Bernardo do Campo - SP 09853-310 Brasil,-23.744598,-46.631812
664,Rua Bituva 217 - Eldorado Diadema - SP 09971-070 Brasil,-23.723812,-46.620913
680,R. Joao Antonio de Araujo 40 - Eldorado Diadema - SP 09972-001 Brasil,-23.724925,-46.624469
635,Av. Elias Alves da Costa 43258 ,-23.607383,-47.01093
648,Avenida Alda 1800,-23.700038,-46.628511
650,Av. Alda 467 - Eldorado Sao Paulo - SP 04476-240 Brasil,-23.702179,-46.624999
622,Av. Eliseu de Almeida 2700 - Jardim Peri Peri Sao Paulo - SP 05533-000 Brasil,-23.589213,-46.73416
91114,Rua Deodoro da Fonseca 100,-23.705091,-46.804867
658,Av. Nsa. Sra. Dos Navegantes 144 - Eldorado Diadema - SP 09973-340 Brasil,-23.717542,-46.624815
612,Rua Alarico Cavalcanti Nunes 74 - Jardim Aimore Sao Paulo - SP 08110-380 Brasil,-23.496441,-46.400109
611,R. Tiburcio De Souza 271 - Itaim Paulista Sao Paulo - SP 08140-000 Brasil,-23.499855,-46.399045
608,R. Tiburcio De Souza 1117 - Jardim Camargo Novo Sao Paulo - SP 08140-000 Brasil,-23.508594,-46.395154
607,R. Tiburcio de Sousa 1561,-23.510475,-46.394517
610,R. Tiburcio De Souza 649 - Itaim Paulista Sao Paulo - SP 08140-000 Brasil,-23.502612,-46.397263
663,R. Caranguejo 312 - Eldorado Diadema - SP 09971-100 Brasil,-23.725123,-46.619868
682,Rua Bituva 53 - Eldorado Diadema - SP 09971-070 Brasil,-23.723138,-46.622363
685,Rua Presidente Prudente 80 - Eldorado Diadema - SP 09972-300 Brasil,-23.726363,-46.617617
687,Rua Presidente Prudente 394 - Eldorado Diadema - SP 09972-300 Brasil,-23.723744,-46.618126
673,Parada Metropolitana Nestor de Barros ,-23.62469,-46.487224
646,Av. Alda 1122 - Centro Diadema - SP 04476-240 Brasil,-23.696305,-46.628973
634,Av. Elias Alves da Costa 222,-23.608535,-47.009101
28099,Av. Diamantino Cruz Ferreira Mourao 3300 - Parque das Americas Praia Grande - SP 11710-005 Brasil,-24.03749,-46.518198
660,Rua Presidente Prudente 404 - Eldorado Diadema - SP 09972-300 Brasil,-23.723314,-46.618182
672,Parada Metropolitana Santa Adelia,-23.620878,-46.478451
616,Parada Metropolitana Matriz,-23.708015,-46.552669
728,Parada Metropolitana Jardim Prudencia,-23.648677,-46.67026
722,Parada Metropolitana Paulo Albernaz,-23.665948,-46.656872
724,Parada Metropolitana Parque do Nabuco,-23.66095,-46.663029
726,Parada Metropolitana Djalma Franco,-23.6547,-46.667132
730,Parada Metropolitana Monte Alegre,-23.641099,-46.67576
731,Parada Metropolitana Jardim Cordeiro ,-23.636638,-46.67751
733,Parada Metropolitana Vereador Jose Diniz ,-23.628987,-46.684944
738,Parada Jornalista Roberto Marinho,-23.611686,-46.695224
740,Parada Oswaldo Casimiro Muller,-23.600617,-46.691132
718,Parada Metropolitana Santo Afonso,-23.676009,-46.642062
707,Avenida Alda 1193,-23.696836,-46.628424
773,Av. Pirajussara 4803 ,-23.598431,-46.747115
758,Estr. do Campo Limpo 3401 - Vila Pirajussara Sao Paulo - SP 05788 Brasil,-23.632798,-46.772487
710,Av. Alda 331 - Centro Diadema - SP 04476-240 Brasil,-23.690054,-46.626958
763,Estrada do Campo Limpo 5314,-23.622056,-46.758307
766,Estrada do Campo Limpo 6255,-23.614306,-46.755511
745,Estrada de Itapecerica Campo Limpo 835,-23.6564,-46.795533
714,TERMINAL METROPOLITANO DIADEMA,-23.684571,-46.626596
743,Rua Augusto de Almeida Batista (Oposto ao n 1195),-23.665617,-46.812152
775,Av. Pirajussara 3815 ,-23.593624,-46.7416
693,Av. Nossa Senhora dos Navegantes 101 - Parque Ecologico - Eldorado Diadema - SP 09973-340 Brasil,-23.717329,-46.625031
698,R. Dr. Jose Silvio de Camargo 1174 - Sete Praias Sao Paulo - SP 04476-070 Brasil,-23.710817,-46.631451
748,Estrada Pirajussara Valo Velho1897,-23.649059,-46.791426
749,Estrada Pirajussara Valo Velho 1557,-23.647299,-46.789989
764,Estrada do Campo Limpo 5554,-23.619866,-46.75787
708,Av. Alda 909 - Centro Diadema - SP 04476-240 Brasil,-23.694498,-46.628631
91115,Rua Floriano Peixoto 4,-23.707268,-46.80583
91910,Av. Ibertioga 58 - Parque Andreense Santo Andre - SP 09160-230 Brasil,-23.756498,-46.463354
760,Estrada do Campo Limpo 4426,-23.625623,-46.765281
765,Estrada do Campo Limpo 5930,-23.61606,-46.756811
767,R. Alves Dos Santos 377 - Jardim Jamaica Sao Paulo - SP 06763-450 Brasil,-23.610506,-46.752314
774,Av. Pirajussara 4011,-23.595064,-46.744491
761,Estrada do Campo Limpo 4786,-23.623008,-46.763147
746,Estrada de Itapecerica Campo Limpo 665,-23.654656,-46.795029
762,Estrada do Campo Limpo 5068,-23.622362,-46.760716
744,Estrada de Itapecerica Campo Limpo 1091,-23.658471,-46.796228
700,Rua Dr. Jose Silvio de Camargo 524 - Eldorado Sao Paulo - SP 04476-120 Brasil,-23.706807,-46.629184
699,R. Dr. Jose Silvio de Camargo 825 - Eldorado Sao Paulo - SP 04476-070 Brasil,-23.709165,-46.629545
701,R. Dr. Jose Silvio de Camargo 801 - Eldorado Sao Paulo - SP 04476-070 Brasil,-23.704729,-46.627439
720,Parada Metropolitana Publio Pimentel,-23.669224,-46.649313
697,R. Dr. Jose Silvio De Camargo 0 - Eldorado Sao Paulo - SP 04477-065 Brasil,-23.713157,-46.635168
703,Av. Alda 2117 - Centro Diadema - SP 04476-240 Brasil,-23.702051,-46.624778
704,Av. Alda 1875 - Jardim Tiradentes Diadema - SP 04476-240 Brasil,-23.701385,-46.626833
705,Av. Alda 1659 - Conceicao Diadema - SP 04476-240 Brasil,-23.70017,-46.628291
709,Av. Alda 645 - Centro Diadema - SP 04476-240 Brasil,-23.692399,-46.627814
712,Av. Alda 41 - Centro Diadema - SP 04476-240 Brasil,-23.687594,-46.624782
713,Praca Pres. Castelo Branco 213 - Centro Diadema - SP 09911-130 Brasil,-23.68654,-46.624099
702,Av. Alda 2363-2593 - Pedreira Sao Paulo 04476-240 Brasil - Eldorado Sao Paulo - SP 04476-240 Brasil,-23.704131,-46.626138
694,Estr. do Alvarenga 6421 - Balneario Sao Francisco Sao Paulo - SP 04474-340 Brasil,-23.715882,-46.626108
756,Av. Carlos Lacerda 2848 - Jardim Elizabeth Sao Paulo - SP 05789-001 Brasil,-23.636378,-46.777674
759,Estrada do Campo Limpo 4060 ,-23.628267,-46.767488
711,Avenida Alda 199 - Centro Diadema - SP 09910-170 Brasil,-23.688446,-46.625345
770,Avenida Professor Francisco Morato - Parada Largo do Taboao C/B,-23.606817,-46.749931
695,Estr. do Alvarenga 5577-5579 - Eldorado Sao Paulo - SP Brasil,-23.716955,-46.629954
847,Av. Andromeda 2000 ,-23.485834,-46.867482
798,Rodovia Raposo Tavares SP-270 km 380,-23.615567,-46.964106
825,Avenida Dos Autonomistas 6194 - Vila Militar Osasco - Sp 02675-031 Brasil - Vila Militar Osasco - SP 02675-031 Brasil,-23.523101,-46.807311
778,Avenida Eliseu De Almeida 2729,-23.589007,-46.733029
785,Av. Elias Alves da Costa 112,-23.605503,-47.027269
950,Av. Francisco Marengo 802 - Jardim Revista Suzano - SP 08694-000 Brasil,-23.51221,-46.300185
793,Avenida Tancredo Neves 235 (Alt. do n 3140),-23.612467,-47.004155
842,Alameda Rio Negro 1250,-23.494959,-46.848637
806,R. Tras Os Montes 28 - Santo Antonio Osasco - SP 06126-090 Brasil,-23.554036,-46.793549
787,Avenida Tancredo Neves 272 ,-23.606374,-47.029483
790,Avenida Tancredo Neves 3151-3279,-23.605739,-47.01731
800,Rodovia Raposo Tavares - SP 270 km 365,-23.608894,-46.952286
40331,Av. Piraporinha 866 - Piraporinha - Vila Nogueira Diadema - SP 09950-000 Brasil,-23.687727,-46.591919
780,Avenida Eliseu De Almeida 1651,-23.584535,-46.727756
786,Av. Elias Alves da Costa 750 ,-23.605784,-47.030083
801,Rodovia Raposo Tavares - SP 270 km 346,-23.601975,-46.935931
91116,Avenida das Flores (Oposto ao n 80),-23.711819,-46.807596
91911,Av. Alda 43 - Eldorado Sao Paulo - SP 04476-240 Brasil,-23.704023,-46.626687
849,Terminal Rodoviario de Aruja,-23.394653,-46.324162
795,Rodovia Raposo Tavares km 406,-23.612394,-46.987069
779,Avenida Eliseu De Almeida 1907,-23.585664,-46.729417
791,Av. Tancredo Neves 143,-23.606638,-47.014473
792,Avenida Presidente Tancredo Neves 2500,-23.609024,-47.009213
794,Av. Tancredo Neves 27,-23.613583,-46.996094
796,SP-270 Rod. Raposo Tavares km 395 leste,-23.614258,-46.978579
788,Av. Tancredo Neves 556,-23.60605,-47.02707
89911,Praca Alfonso Hernandes Brandolise 600 Tiete - SP 18530-000 Brasil,-23.110227,-47.717358
797,Rodovia Raposo Tavares SP-270 km 386,-23.61553,-46.969596
92654,SP-332 km 404 norte Franco da Rocha - SP 13205-005 Brasil,-23.316869,-46.753495
808,Rua Justino Alves Batista 873,-23.553155,-46.79394
782,Rua Dr. Rene Correa 885 - Jardim Sao Marcos Vargem Grande Paulista - SP 06683-510 Brasil,-23.596118,-47.017575
803,Praca Filinto Muller,-23.556998,-46.796439
862,Estr. Pedro da Cunha Albuquerque Lopes 34,-23.426374,-46.329399
863,Estr. Pedro da Cunha Albuquerque Lopes 1277,-23.424145,-46.342039
11338,Rua Fernando de Noronha 101 - Vila Santa Helena Poa - SP 08550-050 Brasil,-23.521022,-46.358387
94234,Rua Dona Henriqueta Batalha Arouche - Recanto da Lapa Franco da Rocha - SP 07810 Brasil,-23.325883,-46.764268
810,R. Gen. Nelsom Braga Moreira 255 - Vila Yolanda Osasco - SP 06126-120 Brasil,-23.548149,-46.792141
822,Rua Alexandre Baptistone 140,-23.527011,-46.796931
811,Rua Justino Alves Batista 15 - Vila Yolanda Osasco - SP 06126-120 Brasil,-23.547053,-46.791123
813,Rua Padre Paulo Xerdel 435 - Vila Yolanda Osasco - SP 02675-031 Brasil,-23.545294,-46.791495
814,Avenida Jose Teruel Lopes 385 - Vila Yolanda Osasco - SP 06124-330 Brasil,-23.544629,-46.794026
815,Rua Reseda 277,-23.543364,-46.794937
817,Av. Das Flores 1037-1163 - Jardim Das Flores - Jardim das Flores Osasco - SP 02675-031 Brasil,-23.538739,-46.794107
818,Rua Camelia 103 - Jardim das Flores Osasco - SP 02675-031 Brasil,-23.536599,-46.792392
820,R. Prof Jose Azevedo Minhoto 515 - Km 18 Osasco - SP 06114-000 Brasil,-23.531474,-46.793896
821,Avenida Olavo Bilac 232 - Km 18 Osasco - SP 02675-031 Brasil,-23.529941,-46.794534
95484,R. Adonilson Alves Ferreira 356-380 - Vale Do Sol - Recanto Phrynea Barueri - SP 06437-160 Brasil,-23.543667,-46.889945
93074,Av. Francisco Rodrigues Filho 7445 - Vila Sao Paulo Mogi das Cruzes - SP 08773-380 Brasil,-23.480444,-46.140444
865,AVENIDA PEDRO DA CUNHA ALBUQUERQUE LOPES  2461 ,-23.421059,-46.350594
868,Rua Diamante 250 - Jardim Joia Aruja - SP 07432-575 Brasil,-23.416663,-46.359609
870,Av. Dutra 350 - Jardim Emilia Aruja - SP 07432-575 Brasil,-23.418157,-46.365551
871,Av. Dutra 459,-23.421592,-46.363754
875,Rua Padre Marcos 618,-23.421549,-46.369096
902,Av. River 77,-23.442635,-46.391864
880,Estrada Agua Chata 817-923,-23.435603,-46.382109
913,R. Padre Marcos 245,-23.421316,-46.369476
910,Rua Landri Sales 1041-1067,-23.434162,-46.379294
93620,Av. Dep. Castro de Carvalho 755 - Vila Julia Poa - SP 08551-320 Brasil,-23.52006,-46.350343
31792,Av. Doutor Jose Artur Nova 650 - Parque Paulistano Sao Paulo - SP 08090-000 Brasil,-23.48779,-46.436625
885,Estrada Agua Chata 2417,-23.442881,-46.392657
887,Estrada Agua Chata 1141,-23.446192,-46.398528
91117,Avenida das Flores (Oposto ao n 699),-23.713277,-46.80692
946,R. Cel. Souza Franco 479 - Vila Theodoro Suzano - SP 08685 Brasil,-23.527969,-46.305145
95485,Rua Casablanca 171 - Res. Vale do Sol Barueri - SP 06437-130 Brasil,-23.545181,-46.889984
866,Avenida Pedro da Cunha Albuquerque Lopes 2855,-23.422535,-46.353675
890,Estrada Presidente Juscelino Kubitscheck de Oliveira 3410,-23.449866,-46.407623
873,R. Pitangueiras 2,-23.423622,-46.366731
874,R. Jaqueira 64,-23.426483,-46.366789
916,Rua Oscar Schiavon 9,-23.41727,-46.363791
917,Rua Diamante 301,-23.416737,-46.359698
918,Avenida Estrada Municipal 1-3481,-23.417123,-46.356703
919,Avenida Pedro da Cunha Albuquerque Lopes 2855,-23.422702,-46.353735
920,Avenida Pedro da Cunha Albuquerque Lopes 2251,-23.421072,-46.350205
921,Avenida Pedro da Cunha Albuquerque Lopes 1567,-23.422963,-46.344878
922,Avenida Pedro da Cunha Albuquerque Lopes 1268,-23.423704,-46.343069
923,Avenida Pedro da Cunha Albuquerque Lopes 1005,-23.424249,-46.342025
924,Avenida Pedro da Cunha Albuquerque Lopes 198,-23.426272,-46.331113
877,Rua Landri Sales 1-423,-23.432217,-46.376464
878,Rua Landri Sales 1-423,-23.434043,-46.379615
879,Estrada Agua Chata 1051-1183,-23.434752,-46.380792
881,Estrada Agua Chata 441-537,-23.437318,-46.383107
882,R. Hipolito da Costa 1,-23.43982,-46.385095
883,Estrada Agua Chata 416,-23.44143,-46.387776
884,Avenida River 215-321,-23.442119,-46.390228
888,Estrada Agua Chata 917-999,-23.447472,-46.399905
895,Av. Jorge Amado 72,-23.431804,-46.40439
896,Estrada Agua Chata 3361,-23.432132,-46.402256
897,Estrada Agua Chata 1440,-23.434402,-46.401274
898,Estrada Agua Chata 3009,-23.435269,-46.400038
899,Rua Fernando Luz 175,-23.435891,-46.398682
900,Estrada Agua Chata 2641,-23.437057,-46.39723
901,Rua Bela Vista 2136,-23.439259,-46.395376
903,Av. River 324,-23.442095,-46.389818
904,Avenida River 465,-23.441444,-46.387555
905,Av. River 708,-23.440172,-46.385375
906,Rua Fernando Namora 310,-23.438128,-46.383654
907,Estrada Agua Chata 390-452,-23.437277,-46.382945
908,Estrada Agua Chata 890,-23.435548,-46.381938
909,R. Mario de Sa Cordeiro 65,-23.434855,-46.380815
912,R. Padre Agostinho 350,-23.419351,-46.371088
914,Rua das Mangueiras 445,-23.426523,-46.365083
915,Rua das Mangueiras 256,-23.424654,-46.364819
894,Estr. Pres. Juscelino Kubitschek de Oliveira 4590,-23.433191,-46.405206
937,Rua Felicio de Camargo 544 - Centro Suzano - SP 08674-030 Brasil,-23.537151,-46.307289
944,Av. Jorge Bei Maluf 1032-1050 - Vila Theodoro Suzano - SP Brasil - Vila Theodoro Suzano - SP 08686-000 Brasil,-23.533963,-46.307299
94814,Rua Belem 99 - Jardim do Libano Barueri - SP 06448-190 Brasil,-23.548931,-46.873951
1022,Av. Lucas Nogueira Garcez 341 - Vila Santa Maria Poa - SP 08563-100 Brasil,-23.532747,-46.349477
990,R. Cambara Orli 866 - Jardim Aracare Itaquaquecetuba - SP 08574-150 Brasil,-23.505088,-46.356897
1027,Av. Brasil 810 - Calmon Viana Poa - SP 08561-000 Brasil,-23.524432,-46.336713
1031,Av. Leonor Marques da Silva 125 - Centro Poa - SP Brasil - Centro Poa - SP 08550-150 Brasil,-23.523739,-46.342606
1037,Avenida Antonio Massa 375 Poa - Sao Paulo 08559 Brasil - Centro Poa - SP 08550-350 Brasil,-23.51912,-46.340767
953,Av. Francisco Marengo 1490-1560 - Jardim Revista Suzano - SP Brasil - Vila Celia Suzano - SP 08693-480 Brasil,-23.505657,-46.299847
958,Estr. Pinheirinho Novo 2206 Itaquaquecetuba - SP Brasil,-23.487998,-46.294485
1019,Av. Lucas Nogueira Garcez 961 - Parada Estancia - Poa SP 08558-470 Brasil,-23.535408,-46.35526
997,Rua Tiburcio de Sousa 336 - Itaim Paulista Sao Paulo - SP 08140-000 Brasil,-23.500369,-46.398883
988,Avenida Italo Adami 1592 - Vila Ursulina Itaquaquecetuba - SP 08574-020 Brasil,-23.502355,-46.349838
954,Av. Francisco Marengo 2078 - Jardim Dona Benta Suzano - SP 08694-520 Brasil,-23.501713,-46.298382
977,Rua Guilhermina Maria da Conceicao - Cemiterio - Centro Itaquaquecetuba - SP 08570-640 Brasil,-23.47664,-46.35393
92655,Pr. Lydia Scalete Walker 127 - Centro Francisco Morato - SP 07901-040 Brasil,-23.281366,-46.744797
993,R. Francisco Vaz Moniz 72 - Jardim Aimore Sao Paulo - SP 08110-340 Brasil,-23.494761,-46.404598
969,Estr. de Sao Bento 495 - Jardim Serra Dourada Itaquaquecetuba - SP 08598-090 Brasil,-23.464001,-46.331432
1017,Av. Brasil 215 - Vila Correa Ferraz de Vasconcelos - SP 08529-310 Brasil,-23.535881,-46.357503
1035,Av. Leonor Bolsoni Marques da Silva 700 - Conj. Alvorada Poa - SP 08559-120 Brasil,-23.520164,-46.33771
1015,Rua Bruno Altafim Ferraz de Vasconcelos - Sao Paulo 08501 Brasil - Sitio Paredao Ferraz de Vasconcelos - SP 08502-005 Brasil,-23.53841,-46.364152
957,Avenida Francisco Marengo 2548 - Jardim Chacara Mea Suzano - SP 08694-000 Brasil,-23.497027,-46.295056
987,Av. Italo Adami 2195 - Vila Zeferina Itaquaquecetuba - SP Brasil - Vila Ferreira Itaquaquecetuba - SP 08574-020 Brasil,-23.498679,-46.349612
1026,Viaduto Tancredo de Almeida Neves Poa - Sao Paulo 08550 Brasil - Centro Poa - SP 08561-000 Brasil,-23.524555,-46.341451
998,R. Tiburcio De Souza 694 - Itaim Paulista Sao Paulo - SP 08140-000 Brasil,-23.502908,-46.397287
999,Rua Tiburcio de Sousa 1058 - Itaim Paulista Sao Paulo - SP 08140-000 Brasil,-23.506072,-46.396186
996,R. Dr. Durval Vilalva 30 - Vila Silva Teles Sao Paulo - SP 08110-240 Brasil,-23.498569,-46.40125
1005,Rua Tiburcio de Sousa 2640 - Itaim Paulista Sao Paulo - SP 08140-000 Brasil,-23.518023,-46.388291
1002,Rua Tiburcio de Sousa 1280 - Vila Morgadouro Sao Paulo - SP 08140-000 Brasil,-23.513266,-46.392521
1011,Avenida Presidente Tancredo de Almeida Neves Ferraz de Vasconcelos - Sao Paulo 08538 Brasil - Vila Sofia Ferraz de Vasconcelos - SP 08530-460 Brasil,-23.533933,-46.379026
1014,R. Santos Dumont 677 - Vila Maria Rosa Ferraz de Vasconcelos - SP 08530-000 Brasil,-23.538032,-46.366564
965,Estr. Pinheirinho Novo 2456 - Cuiaba Itaquaquecetuba - SP 08588-640 Brasil,-23.464738,-46.301297
967,Estr. Pinheirinho Novo 1655 - Cuiaba Itaquaquecetuba - SP 07440-400 Brasil,-23.455474,-46.305537
1000,Rua Tiburcio de Sousa 1198 - Jardim Camargo Novo Sao Paulo - SP 08140-000 Brasil,-23.507387,-46.395724
964,Estr. Pinheirinho Novo 1265 - Cuiaba Itaquaquecetuba - SP 08595-000 Brasil,-23.466987,-46.300138
1006,R. Tiburcio De Souza. 3233 - Jardim Laura Sao Paulo - SP 08140-000 Brasil,-23.521547,-46.386739
994,Estr. D. Joao Neri 80 - Vila Silva Teles Sao Paulo - SP 08452-340 Brasil,-23.495777,-46.404975
11341,Av. Dep. Castro de Carvalho 447 - Vila Julia Poa - SP 08551-030 Brasil,-23.52015,-46.347844
94815,Estr. das Pitas 262 - Jardim do Libano Barueri - SP 06449-300 Brasil,-23.543804,-46.867739
95486,R. Orinoco 7 - Res. Vale do Sol Barueri - SP 06437-090 Brasil,-23.546078,-46.888412
1087,Rua Augusto de Almeida Batista 1379,-23.664448,-46.811221
1057,Avenida Jorge Amado - Extra Taboao C/B,-23.609121,-46.751923
1067,Estrada do Campo Limpo 3913,-23.628923,-46.768764
1068,Estrada do Campo Limpo 3632 - Faculdade Anhanguera,-23.630665,-46.770822
1059,Av. Jorge Amado 122 - Jardim Jamaica Taboao da Serra - SP 06763-450 Brasil,-23.609789,-46.752444
1062,Estrada do Campo Limpo 5551,-23.620071,-46.758002
1055,Avenida Professor Francisco Morato - Parada Doutor Guilherme Dumont Vilares C/B,-23.605241,-46.746233
1063,Estrada do Campo Limpo 5135,-23.622143,-46.760419
1072,Avenida Carlos Lacerda 842,-23.638636,-46.779872
1088,Rua Augusto de Almeida Batista 779,-23.662872,-46.814768
1078,Estrada Pirajussara Valo Velho 1600,-23.647606,-46.790821
1079,Estrada Pirajussara Valo Velho 1807,-23.649093,-46.791627
1080,Rua Tiradentes 72,-23.650186,-46.793326
1056,Avenida Professor Francisco Morato - Parada Largo do Taboao C/B,-23.606978,-46.750527
1081,Estrada de Itapecerica Campo Limpo 339,-23.652243,-46.794558
1126,R. William Harding 3 - Vila Gustavo Sao Paulo - SP 02267-010 Brasil,-23.478068,-46.601744
91118,Estrada do Gramado 796 ,-23.657135,-46.842456
1108,Av. Ver. Joao Batista Fitipaldi 77 - Centro Suzano - SP 08694-080 Brasil - Jardim Revista Suzano - SP 08694-080 Brasil,-23.519262,-46.29758
1070,Avenida Carlos Lacerda 272,-23.635384,-46.776285
1064,Estrada do Campo Limpo 4809,-23.62264,-46.762902
1114,R. Silvandira 113 - Jardim Felix e Milton Itaquaquecetuba - SP 08593-120 Brasil,-23.48119,-46.286701
91914,Parada 1 - Metro Sao Judas C/B - Vila Monte Alegre Sao Paulo - SP 04045-001 Brasil,-23.624742,-46.640765
92656,Av. Sao Paulo 1510 - Jardim Elba Francisco Morato - SP 07845-000 Brasil,-23.299627,-46.73631
1125,Terminal do Metro Tucuruvi ,-23.479037,-46.602568
1110,R. Santo Antonio 512 - Vila Laura Suzano - SP 08694-440 Brasil,-23.504424,-46.298427
1082,Estrada de Itapecerica Campo Limpo 630,-23.654767,-46.795177
1083,Estrada de Itapecerica Campo Limpo 800-902,-23.656609,-46.795724
1085,Rua Augusto de Almeida Batista - Avenida das Pombas,-23.658482,-46.800199
1075,Avenida Augusto Barbosa Tavares 540,-23.642223,-46.785896
1071,Av. Carlos Lacerda 552 - Pirajussara Sao Paulo - SP 05789-000 Brasil,-23.636771,-46.778697
94816,Estrada Das Pitas 452 - Parque Viana Barueri - SP 06449-300 Brasil,-23.544889,-46.868975
1116,Rua Mauricio Jose Oliveira 365 - Mogi das Cruzes SP 08593 Brasil,-23.479703,-46.281177
1043,R. Uruacu 512 - Jardim Violeta Poa - SP 08555-550 Brasil,-23.508193,-46.351913
1119,R. Miracatu 150 - Parque Recanto Monica Itaquaquecetuba - SP 85921-120 Brasil,-23.472919,-46.289355
1118,Rua Domingos Jorge Velho 139,-23.481198,-46.284344
1086,Rua Augusto de Almeida Batista - Estrada Sao Jose,-23.65754,-46.804341
94235,chacara da conquista - Estr. do Bom Tempo - Recanto da Lapa Franco da Rocha - SP 07810-500 Brasil,-23.32505,-46.762561
1065,Estrada do Campo Limpo 4551,-23.625126,-46.765075
1060,Estrada do Campo Limpo 6439,-23.612787,-46.75499
1117,R. Domingos Jorge Velho 367-415 - Vila Augusta Itaquaquecetuba - Sp Brasil Itaquaquecetuba - SP 08593-190 Brasil,-23.480955,-46.282244
1050,Av. Eliseu De Almeida 387,-23.591805,-46.739661
1047,Rua Pio XII 567 - Vila Aurea Poa - SP 08554-320 Brasil,-23.513759,-46.357454
1113,R. Margarida Lima de Oliveira 11 - Jardim Sao Jose Suzano - SP 08695-085 Brasil,-23.491554,-46.287349
1084,Estrada de Itapecerica Campo Limpo 1068,-23.65853,-46.796451
1061,Estrada do Campo Limpo 6903,-23.617416,-46.75803
1066,Estrada do Campo Limpo 4524,-23.627263,-46.766861
1127,Av. Doutor Antonio Maria Laet 1008 - Vila Gustavo Sao Paulo - SP 02308 Brasil,-23.475356,-46.599638
1111,Rua Guilherme Garijo 160 - Jardim Santa Ines Suzano - SP 08695-010 Brasil,-23.49496,-46.293284
1112,R. Guilherme Garijo 167 Suzano - SP Brasil - Jardim Santa Ines Suzano - SP 08695-010 Brasil,-23.493567,-46.290993
571,Rua Marechal Floriano Peixoto 305 Poa - Sao Paulo 08550 Brasil - Vila Julia Poa - SP 08550-010 Brasil,-23.52284,-46.344994
1197,Estr. do Embu 3500 - Cemucam Cotia - SP 06712 Brasil,-23.616406,-46.850087
1131,R. Benjamim Pereira 308 - Vila Nelson Sao Paulo - SP 02274-000 Brasil,-23.468246,-46.590495
1128,Av. Dr. Antonio Maria Laet 1130 - Parada Inglesa Sao Paulo - SP 02240-000 Brasil,-23.473036,-46.598177
1171,Av. Otavio Braga de Mesquita 1262 - Vila Fatima Guarulhos - SP 07140-230 Brasil,-23.454043,-46.508769
1182,Rua do Araujo 106,-23.42368,-46.507697
1183,R. do Araujo 185 - Jardim Beirute Guarulhos - SP 07141-430 Brasil,-23.424666,-46.508973
1175,Avenida Otavio Braga De Mesquita 2771 Vila Barros Guarulhos - Sao Paulo 07194 Brasil - Vila Barros Guarulhos - SP 07194-180 Brasil,-23.440537,-46.507711
1158,R. Cap. Gabriel 400 - Centro Guarulhos - SP 07011-010 Brasil,-23.467173,-46.531295
1174,Av. Otavio Braga de Mesquita 2244 - Vila Barros Guarulhos - SP 07191-000 Brazil,-23.445302,-46.507977
1167,R. Jose Lopes 24 - Macedo Guarulhos - SP 07197-160 Brasil,-23.46567,-46.51405
1132,R. Benjamim Pereira 566 - Vila Nelson Sao Paulo - SP 02274-001 Brasil,-23.468164,-46.588118
1143,Rua Pedro Alvares Cabral 851 - Jardim Vila Galvao Guarulhos - SP 07055-061 Brasil,-23.46335,-46.563741
1151,Av. Emilio Ribas 1515 - Jardim Vila Galvao Guarulhos - SP 07051-000 Brasil,-23.465978,-46.547564
1133,Rua Benjamin Pereira 800,-23.467181,-46.585994
1137,R. Abilio Pedro Ramos 552 - Vila Nova Carolina Sao Paulo - SP 02279-000 Brasil,-23.461047,-46.575683
1189,Rua Joao Gomes 549 - Parque Flamengo Guarulhos - SP 07135-160 Brasil,-23.422878,-46.519686
1156,Av. Esperanca 127 - Centro Guarulhos - SP 07095-005 Brasil,-23.464462,-46.531612
1168,Avenida Otavio Braga de Mesquita 50,-23.464035,-46.512554
1188,R. Serafim Joaquim de Aquino 317 - Parque Flamengo Guarulhos - SP 07134-625 Brasil,-23.425211,-46.519387
1147,R. Diogo Botelho 361 - Jardim Vila Galvao Guarulhos - SP 07054-060 Brasil,-23.46493,-46.557306
1173,Av. Otavio Braga de Mesquita 2086 - Vila Barros Guarulhos - SP 07191-000 Brasil,-23.446697,-46.50825
1148,R. Diogo Botelho 29 - Jardim Vila Galvao Guarulhos - SP 07054-060 Brasil,-23.462915,-46.555147
1169,Av. Otavio Braga de Mesquita 592 - Vila Florida Guarulhos - SP 07191-000 Brasil,-23.459638,-46.511014
1165,Avenida Monteiro Lobato 352 Centro Guarulhos - Sao Paulo 07010 Brasil - Vila Rachid Guarulhos - SP 07013 Brasil,-23.469822,-46.52279
1135,Rua Doutor Carlos Bastos Aranha 190 - Guapira Sao Paulo - SP 02278-010 Brasil,-23.463383,-46.581589
1202,Al. Rio Negro 1321 - Alphaville Industrial Barueri - SP 06454-020 Brasil,-23.493578,-46.849252
1177,Av. Otavio Braga de Mesquita 3230 - Jardim Sao Geraldo Guarulhos - SP 07191-000 Brasil,-23.434296,-46.504947
1170,Av. Otavio Braga de Mesquita 714 - Jardim Santa Barbara Guarulhos - SP 07191-270 Brasil,-23.458192,-46.510425
1149,Av. Emilio Ribas 2137 - Jardim Vila Galvao Guarulhos - SP 07051-001 Brasil,-23.463874,-46.553193
1180,Av. Silvestre Pires de Freitas 324 - Jardim Paraiso Guarulhos - SP 07144-000 Brasil,-23.427794,-46.502821
1152,Rua Nossa Senhora Mae dos Homens 59,-23.465132,-46.543898
1163,R. Benedito Faustino de Morais 12 - Vila Rachid Guarulhos - SP 07012-080 Brasil,-23.471542,-46.527206
1153,R. Mario 2 - Gopouva Guarulhos - SP 07092-030 Brasil,-23.464174,-46.542336
1186,R. Armazem 65 - Vila Sao Joao Batista Guarulhos - SP 07134-110 Brasil,-23.425609,-46.515756
1154,Rua Nossa Senhora Mae dos Homens 710,-23.462576,-46.539193
1134,R. Benjamim Pereira - Guapira Sao Paulo - SP 02274-090 Brasil,-23.465324,-46.584008
1129,Avenida Doutor Antonio Maria Laet 1770,-23.468289,-46.59544
1140,Rua Vicente Melro 1077,-23.459446,-46.566636
1161,R. Dr. Ramos de Azevedo 47 - Centro Guarulhos - SP 07012-010 Brasil - Jardim Santa Edwirges Guarulhos - SP 07012-010 Brasil,-23.470989,-46.529949
1184,Rua Belarminio Antonio Garcia 110 - Vila Sao Joao Batista Guarulhos - SP 07141-420 Brasil,-23.425686,-46.51163
1130,R. Pero Vidal 1026 - Parque Vitoria Sao Paulo - SP 02268-000 Brasil,-23.468306,-46.594031
1193,Av. Faria Lima 848 - Jardim Adriana Guarulhos - SP 07130-000 Brasil,-23.424492,-46.523586
1144,Rua Martim Afonso 167 - Jardim Vila Galvao Guarulhos - SP 07055-100 Brasil,-23.46383,-46.560584
1157,R. Cap. Gabriel 449 - Centro Guarulhos - SP 07011-010 Brasil,-23.466143,-46.531392
34634,Av. Doutor Jose Artur Nova 1360 - Parque Paulistano Sao Paulo - SP 08090-000 Brasil,-23.48392,-46.433683
93621,R. Antonio Carlos dos Santos 574 - Jardim Bom Retiro (Nova Veneza) Sumare - SP 13183-091 Brasil,-22.847577,-47.198187
94236,R. Joao Rosolem 395-495 - Vila Rosina Caieiras - Sp 07700-000 Brasil - Vila Rosina Caieiras - SP 07749-225 Brasil,-23.387275,-46.740164
94817,Estrada Das Pitas 633 - Parque Viana Barueri - SP 06449-300 Brasil,-23.54645,-46.870571
91119,Estrada Benedito Pereira Rodrigues (Oposto ao n 521),-23.705753,-46.822157
91915,SP-055 km 3066 oeste - Vila Vera Cruz Mongagua - SP 11730-000 Brasil,-24.102494,-46.639922
1263,Estr. Pinheirinho Novo 3375 - Estancia Paraiso Itaquaquecetuba - SP 08595-500 Brasil,-23.47331,-46.297315
1240,Avenida Italo Adami 2051 - Morro Branco Itaquaquecetuba - SP 08574-020 Brasil,-23.499008,-46.349583
1236,Rua Cambara Orli 865 - Jardim Mirai Itaquaquecetuba - SP 08574-432 Brasil,-23.505207,-46.356883
1237,R. Cambara Orli 452-460 - Jardim Aracare Itaquaquecetuba - SP Brasil - Jardim Aracare Itaquaquecetuba - SP 08574-240 Brasil,-23.504862,-46.354194
11775,Av. Francisco Rodrigues Filho - Botujuru Mogi das Cruzes - SP Brasil - Sabauna Mogi das Cruzes - SP 08840 Brasil,-23.469214,-46.119283
1287,Estrada do Embu 1241,-23.606851,-46.852566
1289,Estrada do Embu 509-651,-23.602405,-46.85605
1279,Av. Ver. Joao Batista Fitipaldi 795 - Vila Maluf Suzano - SP 08685-000 Brasil - Vila Theodoro Suzano - SP 08685-250 Brasil,-23.528124,-46.305508
1290,Estr. do Embu 311 - Jardim Torino Cotia - SP 06713-160 Brasil,-23.600533,-46.857993
91916,SP-055 km 3083 oeste - Vila Seabra Mongagua - SP 11730-000 Brasil,-24.109796,-46.654031
1298,R. Maria Sayeg 41 - Jardim das Oliveiras Itapecerica da Serra - SP 06867-420 Brasil,-23.757883,-46.808745
1286,Estr. do Embu (Oposto ao n 3500) - Jardim Colibri Cotia - SP 06713-100 Brasil,-23.616267,-46.849976
1218,Av. dos Autonomistas 6749 - Vila Yara Osasco - SP 06194-050 Brasil,-23.524251,-46.810993
1247,Av. Italo Adami 189 - Vila Zeferina Itaquaquecetuba - SP 08573-010 Brasil,-23.482116,-46.351868
1259,Estr. de Sao Bento 1180 - Jardim Altos de Itaqua Itaquaquecetuba - SP 08598-392 Brasil,-23.463666,-46.323426
1302,Rua Marajo 11,-23.757618,-46.807773
1256,Estrada Santa Isabel 3306 - Jardim dos Ipes Itaquaquecetuba - SP 08598-040 Brasil,-23.464154,-46.33413
1248,Avenida Emancipacao 265 - Centro Itaquaquecetuba - SP 08570-002 Brasil,-23.478903,-46.353086
1255,Estr. do Mandi 121 Itaquaquecetuba - SP 08599-000 Brasil,-23.465382,-46.336567
1242,Av. Italo Adami 1765-1785 - Vila Zeferina Itaquaquecetuba - SP Brasil - Morro Branco Itaquaquecetuba - SP 08574-020 Brasil,-23.495046,-46.348688
1249,Av. Emancipacao 45 - Centro Itaquaquecetuba - SP 08570-002 Brasil,-23.477542,-46.353245
1251,R. da Liberdade 132 - Centro Itaquaquecetuba - SP 08570-170 Brasil,-23.474034,-46.34961
1257,Estr. de Sao Bento 502 - Jardim Odete Itaquaquecetuba - SP 07440-400 Brasil,-23.46415,-46.331396
93622,Rua Antonio Carlos dos Santos 934 - Jardim Calegari (Nova Veneza) Sumare - SP 13183-091 Brasil,-22.849816,-47.194576
1264,Rua Macedonia 720 - Pium Itaquaquecetuba - SP 08592 Brasil,-23.474997,-46.296044
1273,R. Braz Cubas 485 - Cidade Edson Suzano - SP 08665-320 Brasil - Sesc Suzano - SP 08694-290 Brasil,-23.512528,-46.300358
1274,R. Solon 2 - Boa Vista Paulista Suzano - SP 08694-280 Brasil - Sesc Suzano - SP 08694 Brasil,-23.515332,-46.299803
1261,Estr. Pinheirinho Novo 2150 - Parque Dirce Itaquaquecetuba - SP 08595-300 Brasil,-23.464663,-46.301531
1241,Av. Italo Adami 1839 - Vila Ursulina Itaquaquecetuba - SP 08574-020 Brasil,-23.49687,-46.348563
1224,Rua Prof Jose Azevedo Minhoto 554,-23.531831,-46.793975
94818,R. Belem 98 - Votupoca - Jardim do Libano Barueri - SP 06448-190 Brasil,-23.548786,-46.873975
1225,Avenida Crisantemo 84,-23.53308,-46.793824
1227,Av. Das Flores 1164 - Jardim Das Flores - Jardim das Flores Osasco - SP 02675-031 Brasil,-23.537886,-46.79411
1228,Avenida Das Flores 1255 - Jardim das Flores Osasco - SP 06120-022 Brasil,-23.538945,-46.794445
1231,R. Delfino Cerqueira 127 - Vila Yolanda Osasco - SP 06120-280 Brasil,-23.545738,-46.792786
1233,Rua Justino Alves Batista 536 - Vila Yolanda Osasco - SP 06126-120 Brasil,-23.550604,-46.793047
1222,Av. Cmte. Sampaio 285 - Km 18 Osasco - SP 06192-010 Brasil,-23.528149,-46.794405
3875,Estr. Dona Maria Jose Ferraz Prado 329 - Chacaras Bartira - Chacaras Bartira Embu das Artes - SP 06845-070 Brasil,-23.6406,-46.883255
91120,Estrada Sao Jose 1125,-23.65773,-46.804666
1229,R. Joao Antonio Prado 152 - Jardim das Flores Osasco - SP 06112-000 Brasil,-23.541429,-46.794794
1310,Estr. Crispim 8- Jardim Santa Julia Itapecerica da Serra - SP 06866-190 Brasil,-23.754431,-46.789639
1326,Estrada do M'Boi Mirim 6669,-23.701248,-46.781775
1330,Estr. do MBoi Mirim 5067 - Jardim Caicara Sao Paulo - SP 04948-030 Brasil,-23.690269,-46.774055
1321,Estrada do M'boi Mirim 8755,-23.718456,-46.784362
1322,Estrada do M'Boi Mirim 9981,-23.715789,-46.782921
1325,Estrada do M'Boi Mirim 6851,-23.702525,-46.78306
1315,Estrada do M'Boi Mirim 10753 - Parque Universitario Espirita Sao Paulo - SP 04960-010 Brasil,-23.738514,-46.790741
1309,Estr. do Crispim 734 - Cidade Sao Pedro Itapecerica da Serra - SP 06866-170 Brasil,-23.754965,-46.792851
1377,Av. Indianopolis 1600 - Planalto Paulista Sao Paulo - SP 04063-003 Brasil,-23.612432,-46.650929
1378,Av. Indianopolis 2110 - Planalto Paulista Sao Paulo - SP 04062-000 Brasil,-23.616363,-46.649299
1390,Av. das Moncoes 121 - Parque Recanto Monica Mogi das Cruzes - SP 08592-150 Brasil,-23.464728,-46.285986
1383,Av. Jabaquara 2673 - Mirandopolis Sao Paulo - SP 04045-004 Brasil,-23.627392,-46.642347
1314,Rod. Jose Simoes Louro Junior 11020 - Jardim do Edem Sao Paulo - SP 06865-800 Brasil,-23.739753,-46.793154
1324,Estrada do M'Boi Mirim 7100,-23.706701,-46.784255
1382,Av. Indianopolis 3408 - Planalto Paulista Sao Paulo - SP 04062-003 Brasil,-23.627591,-46.644661
1376,Av. Indianopolis 1350 - Indianopolis Sao Paulo - SP 04062-001 Brasil,-23.610409,-46.651777
1306,R. Solimoes 1041 - Cidade Santa Julia Itapecerica da Serra - SP 06866-500 Brasil,-23.756702,-46.799154
1307,R. Crispim 45 - Jardim Santa Julia Itapecerica da Serra - SP 06866-210 Brasil,-23.756522,-46.796229
1381,Av. Indianopolis 3096 - Planalto Paulista Sao Paulo - SP 04062-003 Brasil,-23.625015,-46.645713
1312,Rod. Jose Simoes Louro Junior 2188 - Jardim do Edem Itapecerica da Serra - SP 06865-800 Brasil,-23.746437,-46.79225
1379,Av. Indianopolis 2408 - Planalto Paulista Sao Paulo - SP 04062-003 Brasil,-23.619108,-46.648164
1380,Av. Indianopolis 2846 - Indianopolis Sao Paulo - SP 04062-003 Brasil,-23.622994,-46.646557
91917,SP-055 km 3094 oeste - Jardim Praia Grande Mongagua - SP 11730-000 Brasil,-24.114864,-46.663836
1386,R. Abadia - Jardim Piata A Mogi das Cruzes - SP Brasil - Jardim Piata A Mogi das Cruzes - SP 08774-220 Brasil,-23.463434,-46.280813
1458,Rodovia Armando Salles (Oposto ao n 4400) - Parada Beija Flor,-23.693325,-46.820938
1459,Rodovia Armando Salles 4020 - Parada Europa,-23.699485,-46.826742
1446,Estr. de Itapecerica 6040 - Jardim Amalia Sao Paulo - SP 05858-000 Brasil,-23.666035,-46.783232
1479,Praca Nicola Vivilechio,-23.609218,-46.757872
1448,Estrada de Itapecerica 6740,-23.671298,-46.786915
1449,Estrada de Itapecerica 7075,-23.674207,-46.788041
1450,Estrada de Itapecerica 7331,-23.67612,-46.789953
1409,R. Santo Antonio 325 - Vila Laura Suzano - SP 08694-385 Brasil,-23.506536,-46.298501
1452,Estrada de Itapecerica 8156,-23.679789,-46.796163
1460,Rodovia Armando Salles 3003,-23.703444,-46.828405
1427,Rua Esmeraldo Jose de Oliveira 376,-23.541172,-46.299899
1461,Rodovia Armando Salles 2578 - Parada Coco Verde,-23.704682,-46.829318
1453,Estrada de Itapecerica 8742,-23.684116,-46.798686
1462,Rodovia Armando Salles 2499,-23.706703,-46.829987
1428,R. Amelia Guerra 845 - Vila Amorim Suzano - SP 08610-000 Brasil,-23.54112,-46.298511
91121,Estrada do M'Boi Mirim 5918 - Parque do Lago Sao Paulo - SP 04948-030 Brasil,-23.695265,-46.779898
1463,Rodovia Armando Salles 2289 - Parada Imperatriz ,-23.708822,-46.832278
1429,R. Amelia Guerra 1018 - Vila Amorim Suzano - SP 08610-000 Brasil,-23.541706,-46.296928
1465,Rodovia Armando Salles (Oposto ao n 710) - Parada Porcino,-23.715064,-46.84113
92660,Ac. Francisco Morato 588 - Vila Bela Franco da Rocha - SP 07832-295 Brasil - Vila Bela Franco da Rocha - SP 07845-000 Brasil,-23.311128,-46.731704
1402,R. Guilherme Garijo 863 - Jardim Santa Ines Suzano - SP 08695-010 Brasil,-23.491352,-46.287894
1466,Rua Treze de Maio 329,-23.718653,-46.845714
1454,Estrada De Itapecerica 11500,-23.685531,-46.800994
1413,R. Guarani 969 - Jardim Revista Suzano - SP 08694-030 Brasil,-23.512726,-46.297239
1423,R. Benjamin Constant 867 - Centro Suzano - SP 08674-010 Brasil - Conj. Res. Irai Suzano - SP 08674-010 Brasil,-23.542054,-46.312356
1431,R. Prof. Jeremia 586 - Vila Urupes Suzano - SP 08615-050 Brasil,-23.54372,-46.294133
1443,Estr. de Itapecerica 4516 - Jardim Avenida Sao Paulo - SP 05858-000 Brasil,-23.659967,-46.771065
1468,Rua Virgilio Busnello 372 ,-23.713597,-46.847606
1469,Rua Felipe Calieira 35,-23.71186,-46.848483
1434,Rua Jeca Tatu 825 - Puraquequara Suzano - SP 08615 Brasil,-23.550203,-46.293569
1437,R. Bernardo Jose Pereira Sobrinho 553 - Jardim Cacique Suzano - SP 08616-210 Brasil,-23.553991,-46.291685
93624,Avenida Brigadeiro Faria Lima 440,-23.702464,-46.55302
1445,Estrada de Itapecerica 5310,-23.661209,-46.778631
1400,Av. Celeste 660 - Jardim Margarida Mogi das Cruzes - SP 08772-000 Brasil,-23.484467,-46.285593
1420,R. Pedro Favale 41 - Vila Maria de Maggi Suzano - SP 08680-030 Brasil,-23.5298,-46.318255
93075,Avenida Francisco Rodrigues Filho (N. 5970) - Sabauna Mogi das Cruzes - SP 08810 Brasil,-23.492705,-46.148486
1401,R. Silvandira 437 - Jardim Margarida Mogi das Cruzes - SP 08772-000 Brasil,-23.48687,-46.285463
1444,Estrada de Itapecerica 5006,-23.659794,-46.776102
1447,Estr. de Itapecerica 6488 - Parque Fernanda Sao Paulo - SP 05858-002 Brasil,-23.669568,-46.785538
1451,Estrada de Itapecerica 7845,-23.677442,-46.793788
1396,Estr. Reserva 980-989 - Chacara Holiday Itaquaquecetuba - SP 08593-010 Brasil Itaquaquecetuba - SP 08593-495 Brasil,-23.478373,-46.287286
1407,R. Orlando Fava 40 - Jardim Dona Benta Suzano - SP 08694-460 Brasil,-23.501749,-46.297095
1470,Avenida Quinze de Novembro 371,-23.712622,-46.84901
1457,Rodovia Armando Salles 5115 - Parada Campestre,-23.689819,-46.815813
94238,R. Jose Berti 373 - Vila Rosina Caieiras - SP 07700-000 Brasil,-23.387162,-46.735679
1415,R. Venus 197 - Jardim Revista Suzano - SP 08694-060 Brasil,-23.516361,-46.293364
1416,R. Venus 76 - Jardim Revista Suzano - SP Brasil - Jardim Revista Suzano - SP 08694-060 Brasil,-23.517303,-46.292167
91918,SP-055 km 310 oeste - Balneario Santa Eugenia Mongagua - SP 11730-000 Brasil,-24.11747,-46.668832
1394,R. Miracatu 105 - Parque Recanto Monica Itaquaquecetuba - SP 08592-120 Brasil,-23.473431,-46.289549
1399,Rua Silvandira 178 - Jardim Felix e Milton Itaquaquecetuba - SP 08593-120 Brasil,-23.48177,-46.286657
1398,Estrada Felix dos Santos 900 - Jardim Felix e Milton Itaquaquecetuba - SP Brasil,-23.480223,-46.286885
1432,Rua Jeca Tatu 401 - Vila Nova Urupes Suzano - SP 08615-020 Brasil,-23.546889,-46.293702
1426,R. Carl William Cooper 81 - Vila Amorim Suzano - SP 08610-080 Brasil,-23.541966,-46.302743
1405,Rua Guilherme Garijo 81 - Boa Vista Paulista Suzano - SP 08695-015 Brasil,-23.495393,-46.294314
1424,R. Tiradentes 2 - Vila Costa Suzano - SP 08674 Brasil,-23.542839,-46.310986
2402,Estrada Dona Maria Jose Ferraz Prado 97 - Invernada Embu das Artes - SP 06840-295 Brasil,-23.642724,-46.878981
94819,R. Boa Vista 126 - Jardim Do Libano - Jardim do Libano Barueri - SP 06448-140 Brasil,-23.547791,-46.873512
1522,Avenida Otavio Braga de Mesquita 448,-23.460764,-46.511545
1497,Rua Joao Gomes 488 - Parque Flamengo Guarulhos - SP 07135-160 Brasil,-23.423352,-46.520205
1491,Rua Manoel Leite da Cunha (Oposto ao n 136),-23.641939,-46.795523
1514,Av. Otavio Braga de Mesquita 3235 - Taboao Guarulhos - SP 07140-230 Brasil,-23.437074,-46.506672
1485,Rua Patricia Lucia de Souza (Oposto ao n 275),-23.622523,-46.774911
1489,Rua Sideropolis 16,-23.642178,-46.789002
1482,Av. Maria Rosa 196 - Chacara Agrindus Taboao da Serra - SP 06764-140 Brasil,-23.615321,-46.763655
1532,R. Nossa Sra. Mae dos Homens 168 - Jardim Maia Guarulhos - SP 07115-150 Brasil,-23.460362,-46.534433
1520,Av. Otavio Braga de Mesquita 1199 - Vila Fatima Guarulhos - SP 07192-110 Brasil,-23.4545,-46.508869
1512,Av. Otavio Braga de Mesquita 3661 - Jardim Sao Geraldo Guarulhos - SP 07191-000 Brasil,-23.433365,-46.504614
1518,Avenida Otavio Braga De Mesquita 2005 Vila Barros Guarulhos - Sao Paulo 07195 Brasil - Vila Barros Guarulhos - SP 07191-000 Brasil,-23.447428,-46.508475
1492,Avenida Governador Mario Covas  41,-23.643271,-46.797969
1523,Avenida Otavio Braga de Mesquita 139 - Vila Fatima Guarulhos - SP 07197 Brasil,-23.463827,-46.5126
1480,Avenida Doutor Jose Maciel 163,-23.609956,-46.759684
20672,Rua Flor de Laranjeira 621,-23.713506,-46.806481
1552,Rua Cirene de Oliveira Laet - Guapira Sao Paulo - SP 02278-000 Brasil,-23.462288,-46.580551
1494,Avenida Brigadeiro Faria Lima 3359 Morros Guarulhos - Sao Paulo 07135 Brasil - Vila Cocaia Guarulhos - SP 07130-000 Brasil,-23.426208,-46.522683
1496,Rua Joao Gomes 294 - Jardim Adriana Guarulhos - SP 07135-160 Brazil,-23.424394,-46.521403
1498,Rua Serafim Joaquim de Aquino 231 - Parque Flamengo Guarulhos - SP 07134-610 Brasil,-23.42395,-46.519342
1503,Rua Belarminio Antonio Garcia 115 - Vila Sao Joao Batista Guarulhos - SP 07134-380 Brasil,-23.425851,-46.511782
1500,Rua Anhumas 292 - Parque Flamengo Guarulhos - SP 07134-080 Brazil,-23.425627,-46.517007
1526,Avenida Monteiro Lobato 305 Centro Guarulhos - Sao Paulo 07010 Brasil - Vila Rachid Guarulhos - SP 07013 Brasil,-23.469724,-46.523223
1495,Rua Joao Gomes 90 - Vila Cocaia Guarulhos - SP 07135-160 Brasil,-23.425874,-46.521943
1501,Rua Armazem 70,-23.425764,-46.515655
1504,Av. Martins Junior 1487 - Vila Sao Joao Batista Guarulhos - SP 07141-000 Brasil,-23.425979,-46.510367
1502,Rua Armazem 198,-23.425801,-46.514446
1506,Av. Sumare 228 - Jardim Silvia Guarulhos - SP 07141-410 Brasil,-23.423742,-46.507089
1511,SP-036 3873 - Taboao Guarulhos - SP 07194-230 Brasil,-23.431851,-46.503401
1529,R. Felicio Marcondes 358 - Jardim Santa Edwirges Guarulhos - SP 07010-010 Brasil,-23.467087,-46.530034
1560,Avenida Doutor Celso dos Santos 731,-23.977598,-46.496017
1510,Av. Silvestre Pires de Freitas 167 - Taboao Guarulhos - SP 07144-000 Brazil,-23.429248,-46.502674
1543,Rua Pedro Alvares Cabral 846 - Jardim Vila Galvao Guarulhos - SP 07055-061 Brasil,-23.463201,-46.56364
1549,R. Cirene de Oliveira Laet 916 - Vila Nilo Sao Paulo - SP 02279-010 Brasil,-23.459084,-46.572477
1539,Avenida Emilio Ribas 2148,-23.463752,-46.553212
1513,Av. Otavio Braga de Mesquita 3445 - Jardim Sao Geraldo Guarulhos - SP 07191-000 Brasil,-23.434888,-46.505288
1536,Av. Emilio Ribas 1336 - Vila Leonor Guarulhos - SP 07050-000 Brasil,-23.466441,-46.546039
1540,R. Diogo Botelho 82 - Jardim Vila Galvao Guarulhos - SP 07054-060 Brasil,-23.4635,-46.555568
1515,Avenida Otavio Braga De Mesquita 2747 Monte Carmelo Guarulhos - Sao Paulo 07194 Brasil - Jardim Scyntila Guarulhos - SP 07194-030 Brasil,-23.440805,-46.507823
1538,Av. Emilio Ribas 1902 - Vila Capitao Rabelo Guarulhos - SP 07050-000 Brasil,-23.464582,-46.550952
1481,Avenida Doutor Jose Maciel 484,-23.611999,-46.761935
1548,Av. Sete de Setembro 1972 - Vila Galvao Guarulhos - SP 07064-002 Brasil,-23.458258,-46.56939
1555,Rua Benjamin Pereira 695,-23.467585,-46.587033
1533,Rua Nossa Sra. Mae dos Homens 550 - Jardim Bebedouro Guarulhos - SP 07091-000 Brasil,-23.461884,-46.537985
1553,R. Dr. Carlos Bastos Aranha 61 - Vila Nilo Sao Paulo - SP 02278-010 Brasil,-23.463644,-46.582728
1551,R. Cirene de Oliveira Laet 321 - Vila Nilo Sao Paulo - SP 02279-010 Brasil,-23.461198,-46.577866
1534,R. Nossa Sra. Mae dos Homens 1082 - Vila Tijuco Guarulhos - SP 07091-000 Brasil,-23.464056,-46.542322
1542,Avenida Mem de Sa 84,-23.465013,-46.559826
1509,Avenida Silvestre Pires De Freitas 482 Taboao Guarulhos - Sao Paulo 07143 Brasil - Jardim Santa Rita Guarulhos - SP 07141-180 Brasil,-23.426471,-46.503454
1537,Avenida Emilio Ribas 1578 - Jardim Gopouva Guarulhos - SP 07051-110 Brasil,-23.465679,-46.548029
1544,R. Pedro Alvares Cabral 2 - Vila Renata Guarulhos - SP 07055-061 Brasil,-23.462545,-46.563933
1547,Rua Vicente Melro 1150,-23.458753,-46.566843
1558,Avenida Doutor Antonio Maria Laet 712,-23.475586,-46.599901
95487,Avenida Juvenil,-23.576288,-46.80352
1641,Rua Eduardo Froner 460 - Jardim Silvestre Guarulhos - SP 07243-590 Brasil,-23.43416,-46.414006
1646,Rua Sao Jose do Paraiso 100,-23.439992,-46.409335
1601,Rua Padre Marcos 28,-23.41688,-46.371808
1605,Av. Tiradentes 1408 - Luz Sao Paulo - SP 02012-010 Brasil,-23.523548,-46.629511
1581,Rodovia de Interligacao Baixada SP 59/150- Jardim Nova Republica Cubatao - SP 11534-130 Brasil,-23.923024,-46.423693
1579,Av. Nacoes Unidas 681 - Vila Margarida Sao Vicente - SP 11330-300 Brasil,-23.968299,-46.402432
93626,Ac. Sen. Jose Ermirio de Moraes | Marginal Sorocaba - SP Brasil Sorocaba - SP 18085-784 Brasil,-23.472499,-47.43015
1589,Avenida Sao Francisco 128,-23.936755,-46.329626
1645,Estrada Presidente Juscelino Kubitschek de Oliveira 4549 - Pimentas Guarulhos - SP 07252-000 Brasil,-23.439851,-46.407535
1633,R. Capela Nova 117-193 - Vila Nova Cumbica Guarulhos - SP 07231-380 Brasil - Cumbica Guarulhos - SP 07231-380 Brasil,-23.450363,-46.461704
1639,Rod. Pres. Dutra - Porto da Igreja Guarulhos - SP Brasil - Jardim Pres. Dutra Guarulhos - SP 07242 Brasil,-23.433118,-46.420788
1632,Manuel Vitorino 1014 - Cumbica Guarulhos - SP 07231-080 Brasil - Cumbica Guarulhos - SP 07231-080 Brasil,-23.45215,-46.465949
1578,Av. Nacoes Unidas 713 - Vila Margarida Sao Vicente - SP 11330-300 Brasil,-23.966953,-46.404516
1576,Avenida Nacoes Unidas 1137 ,-23.965411,-46.406896
1577,Av. Nacoes Unidas 905 - Planalto Bela Vista Sao Vicente - SP 11330-300 Brasil,-23.966017,-46.405976
1575,Av. Nacoes Unidas 1281,-23.964131,-46.408879
1580,Avenida Nacoes Unidas 23 - Parque Bitaru Sao Vicente - SP 11330-190 Brasil,-23.971264,-46.399066
1642,R. Eduardo Froner,-23.433896,-46.411057
91919,SP-055 km 3107 oeste - Balneario Itaoca Mongagua - SP 11730-000 Brasil,-24.120543,-46.674838
1644,Estrada Juscelino Kubtischek de Oliveira 5165,-23.434621,-46.405471
1634,BR-116 Rod. Pres. Dutra km 2148 norte - Jardim Sao Manoel Guarulhos - SP 07230-260 Brasil,-23.447294,-46.454494
1622,R. Nove 220 - Jardim Munhoz Guarulhos - SP 07042 Brasil,-23.493424,-46.551837
1630,Br-116 Cumbica Guarulhos - Sao Paulo 07223 Brasil - Cumbica Guarulhos - SP 07224 Brasil,-23.45917,-46.482673
1628,Via Lateral-Norte 141 Guarulhos - SP Brasil - Varzea do Palacio Guarulhos - SP 07190-020 Brasil,-23.465001,-46.498256
1619,Rua Ciro Soares de Almeida 706 - Parada Novo Mundo III - Jardim Andarai Sao Paulo - SP 02147-090 Brasil,-23.514234,-46.576983
1609,Av. Pres. Castelo Branco 2500 - Pte. Pequena Sao Paulo - SP 01142-300 Brasil,-23.520694,-46.616199
1599,Avenida Dutra 765,-23.421599,-46.363763
1620,R. Ciro Soares De Almeida 1240 - Parque Novo Mundo Sao Paulo - SP 02176-030 Brasil,-23.510596,-46.573553
1614,Av. Cdssa. Elisabeth De Robiano - Pte. Pequena Sao Paulo - SP 03077-005 Brasil,-23.529468,-46.596338
1650,Avenida Jurema oposto ao 1052,-23.444787,-46.409089
1604,Terminal do Metro Armenia ,-23.525431,-46.630066
1653,Avenida Jurema 327,-23.445596,-46.415998
1602,Avenida Dutra 174,-23.417019,-46.366143
1647,Avenida Maria do Socorro e Silva Bezerra 974,-23.442334,-46.402274
1648,Avenida Maria do Socorro e Silva Bezerra 1050,-23.442816,-46.403645
1649,Avenida Maria do Socorro e Silva Bezerra 1180,-23.444023,-46.407109
1607,Av. Pres. Castelo Branco 2660 - Pte. Pequena Sao Paulo - SP 01142-300 Brasil,-23.520296,-46.623938
1603,Avenida Dutra 322,-23.41814,-46.365526
1640,BR-116 Rod. Pres. Dutra km 2106 norte - Jardim Pres. Dutra Guarulhos - SP 07242 Brasil,-23.431625,-46.417026
1638,Rod. Pres. Dutra - Porto da Igreja Guarulhos - SP Brasil - Jardim Pres. Dutra Guarulhos - SP 07242-000 Brasil,-23.434607,-46.424254
1623,R. Mavilda Neves 900 - Vila Augusta Guarulhos - SP 07034-020 Brasil,-23.485058,-46.53903
1643,Rua Eduardo Froner 1194,-23.432776,-46.406112
1654,Avenida Jurema 65,-23.446636,-46.418345
90956,Av. Engenheiro Augusto Figueiredo 1124 - Pte. Preta Campinas - SP 13045-603 Brasil,-22.932158,-47.032485
1651,Avenida Jurema oposto 860,-23.444949,-46.410912
1652,Av. Jurema 203 - Parque Jurema Guarulhos - SP 07244-000 Brazil,-23.445015,-46.41277
1687,Rodovia Anhanguera- SP 330 km. 18,-23.48025,-46.770388
1739,R. Cachoeira 276 - Jardim Rosa de Franca Guarulhos - SP 07080-000 Brasil,-23.447273,-46.546928
1684,Rodovia Anhanguera- SP 330 km. 16,-23.493838,-46.757625
1694,Rodovia Anhanguera- SP 330 km. 28,-23.414302,-46.806058
1672,Rua Gago Coutinho 356 ,-23.520193,-46.711008
92661,R. Justino Anzelotti 40 - Vila Bazu Franco da Rocha - SP 07807-030 Brasil,-23.318103,-46.730608
1720,Rua Cachoeira Poraque 65,-23.586315,-46.801949
1714,Rua Cachoeira Poraque 34,-23.587092,-46.799695
1723,R. Sylvio Lagreca 08 ,-23.592675,-46.800269
1715,Rua Cachoeira do Arrependido 40 - Conj. Promorar Raposo Tavares Sao Paulo - SP 05574-440 Brasil,-23.586824,-46.802179
1693,Rodovia Anhanguera- SP 330 km. 255,-23.423569,-46.788733
1701,Avenida Bento da Silva Bueno 916 - Jardim Paraiso Cajamar - SP 07750-000 Brasil,-23.416835,-46.821721
1690,Rodovia Anhanguera- SP 330 km. 23 (em frente ao Cemiterio-Parque Jaragua),-23.441363,-46.786207
1705,R. Di Cavalcante 100- Colinas da Anhanguera Santana de Parnaiba - SP 06537-085 Brasil,-23.425151,-46.826212
1708,R. Di Cavalcante 728 - Colinas da Anhanguera Santana de Parnaiba - SP 06537-085 Brasil,-23.430583,-46.826887
1686,Rodovia Anhanguera- SP 330 km. 17,-23.487585,-46.767264
1706,R. Di Cavalcante 376 - Colinas da Anhanguera Santana de Parnaiba - SP 06537-085 Brasil,-23.427562,-46.826471
1698,R. Cajobi 136 - Jardim Santana Cajamar - SP 07750-000 Brasil,-23.414868,-46.830814
1675,Rua Bartholomeu Paes 10,-23.51474,-46.715691
90563,R. Silva Abreu 16 - Vila Santa Rita Sorocaba - SP 18080-075 Brasil,-23.487547,-47.463314
1669,Rua Joao Pereira 277,-23.51979,-46.706488
1674,Rua Bartolomeu Paes 40 - Vila Anastacio Sao Paulo - SP 05092-040 Brasil,-23.514294,-46.714036
1656,Rua Jose Inacio Gomes 416,-23.45033,-46.414214
1737,Avenida Doutor Timoteo Penteado 2593,-23.450621,-46.549357
1679,Rua Fortunato Ferraz 1012,-23.517081,-46.721809
1729,PARADA VILA AUGUSTA - Avenida Presidente Humberto de Alencar Castelo Branco 2341,-23.482277,-46.546739
1657,Rua Guarapiranga 469,-23.45192,-46.414812
1659,R. Dr. Alberto de Melo Seabra 103 - Jardim Angelica Guarulhos - SP 07260-801 Brazil,-23.455289,-46.418321
1730,PARADA STELLA MARIS - Av. Pres. Humberto de Alencar Castelo Branco 3055,-23.475938,-46.547488
1731,PARADA CONEGO VALADAO - Avenida Presidente Humberto de Alencar Castelo Branco 3621,-23.471196,-46.54588
1663,Avenida Jose Miguel Ackel 1899,-23.456481,-46.423441
1732,PARADA EMILIO RIBAS - Avenida Torres Tibagy 90,-23.465736,-46.546694
1738,Rua Cachoeira 116,-23.448659,-46.546331
1699,Rua Antonio Carlos Paivo Camelo 447,-23.41572,-46.826412
1700,Rua Antonio Carlos Paivo Camelo 25,-23.415442,-46.822536
1666,Av. Jose Miguel Ackel 1347 - Parque Industrial Cumbica Guarulhos - SP 07241-090 Brazil,-23.451456,-46.42377
1662,Avenida Jose Miguel Ackel 2233,-23.458141,-46.422558
1667,Avenida Jose Miguel Ackel - Parque Industrial Cumbica Guarulhos - SP 07241-090 Brazil,-23.447223,-46.426112
1668,Rua Taio 402,-23.443229,-46.429035
1733,PARADA TORRES TIBAGY - Av Torres Tibagy alt 842,-23.458308,-46.548586
1655,Rua Jacutinga oposto ao 217,-23.447742,-46.418662
1660,Rua Cruz das Gracas 142,-23.456644,-46.418897
1664,Avenida Jose Miguel Ackel 1837,-23.455866,-46.423751
1658,Rua Eurachio Mauricio 74,-23.453956,-46.417135
1661,Rua Pedrinhas oposto ao 208,-23.458612,-46.420045
1665,Avenida Jose Miguel Ackel 1647,-23.454273,-46.423852
1734,Alameda Yaya 728,-23.456393,-46.545358
1735,Alameda Yaya 922-1000,-23.454439,-46.546007
1736,Alameda Yaya 1187,-23.452996,-46.548474
1811,Av. Thereza Ana Cecon Breda 2065 - Jardim das Colinas Hortolandia - SP 13183-255 Brasil,-22.85164,-47.231774
1794,Avenida Gabriela Mistral 685,-23.515147,-46.550324
1803,Rua Aquilino Vidal 178,-23.531471,-46.545061
1808,Rua Rio Paranapanema 181,-22.840998,-47.2233
1792,Av. Guarulhos 4448 - Vila Zamataro Guarulhos - SP 07032-050 Brasil,-23.504382,-46.552052
1797,R. Rodovalho Junior 181,-23.523619,-46.552004
1802,R. Vera Cruz 30 - Penha de Franca Sao Paulo - SP 03633-030 Brasil,-23.531226,-46.54605
1779,Rua Sao Jose 517,-23.460206,-46.557617
1825,Av. da Emancipacao 800 - Jardim Santa Rita de Cassia Hortolandia - SP 13186-033 Brasil,-22.875818,-47.199467
1814,Av. Sao Francisco de Assis 269 - Vila Real Hortolandia - SP 13183-091 Brasil,-22.857849,-47.22126
1762,Avenida Sao Luiz 636,-23.450788,-46.563031
1763, R. dos Coqueiros Prox. Lago dos Patos Alt. 167,-23.45201,-46.564569
1806,R. Rio Potengi 495 - Parque Orestes Ongaro Hortolandia - SP 13183-713 Brasil,-22.841902,-47.216678
90564,R. Anchieta 176 - Centro Diadema - SP 09910-730 Brasil,-23.685011,-46.625851
1799,Avenida Airton Pretini 345,-23.527965,-46.555175
1781,Rua Central 243,-23.459495,-46.550793
1751,Rua Cento e Tres 151,-23.422626,-46.551109
1809,Rua Rio Iguacu 15 - Parque Orestes Ongaro Hortolandia - SP 13183-091 Brasil,-22.841356,-47.225045
1746,Rua Joao Santana 82,-23.432498,-46.543197
1744,Rua Nizal 308,-23.434656,-46.547226
1813,Av. Thereza Ana Cecon Breda 1661 - Jardim das Colinas Hortolandia - SP 13183-091 Brasil,-22.854864,-47.226355
1824,Rua Pinheiros 117 - Parque dos Pinheiros Hortolandia - SP 13184-622 Brasil,-22.871954,-47.201584
1817,Rua Argolino de Moraes 450 - Vila Sao Francisco Hortolandia - SP 13183-091 Brasil,-22.862286,-47.217356
94239,Estr. Mun. do Taboao 110-684 - Chacaras Bom Tempo - Chacaras Bom Tempo Franco da Rocha - SP 07810 Brasil,-23.326179,-46.756661
11790,Av. Francisco Rodrigues Filho 3655 - Cezar de Souza Mogi das Cruzes - SP 08810-385 Brasil,-23.504508,-46.167049
1749,Rua Nanci Silva Cabral 671 - Terminal da Linha 573 - Guarulhos SP 07083-130 Brasil,-23.426043,-46.549718
1793,Av. Gabriela Mistral 1023 - Penha de Franca Sao Paulo - SP 03701-011 Brasil,-23.512264,-46.551027
1766,Avenida Dona Eugenia Machado da Silva 51-87,-23.457047,-46.567773
1759,Av. Othon Luis Silveira 53 - Jardim do Papai Guarulhos - SP 07081-300 Brazil,-23.443446,-46.558042
1795,Av. Gabriela Mistral 409 - Penha de Franca Sao Paulo - SP 03701-010 Brasil,-23.517559,-46.549653
1748,Rua Ismael Manoel da Silva,-23.428043,-46.545038
1752,Rua Cento e Um 17,-23.422348,-46.551728
1756, Av. Saulle Pagnoncelli 273,-23.440428,-46.555318
1765, R. Sao Francisco 280,-23.454589,-46.568324
1761,Av. Sao Luis Alt. do 36 - Vila Rosalia Guarulhos - SP 07072-110 Brazil,-23.447192,-46.556996
1758,Av. Othon Luiz Silveira 255 - Jardim Rosa de Franca Guarulhos - SP 07081-300 Brazil,-23.441931,-46.558343
1780,Rua Central 567,-23.459694,-46.553951
1753,Avenida Alexandre Grandisoli 105,-23.434743,-46.548439
1754,Rua Palmira D'oeste 78,-23.435303,-46.549144
1755,Rua Visconde de Cairu 671,-23.434814,-46.550992
1750,Rua Daniele do Prado Valim 1,-23.422106,-46.549784
1777,Avenida Emilio Ribas 2402,-23.462348,-46.555971
1778,Avenida Emilio Ribas 2734,-23.461429,-46.558424
1782,Avenida Torres Tibagy 796,-23.45958,-46.548267
1783,Avenida Torres Tibagy 58,-23.465985,-46.546638
1784,Avenida Humberto De A C Branco 132,-23.472279,-46.546205
1785,Avenida Presidente Humberto de Alencar Castelo Branco 2975,-23.476857,-46.547667
1786,Avenida Presidente Humberto de Alencar Castelo Branco 2213,-23.483297,-46.54617
1837,SP-101 km 37 leste - Parque Santa Barbara Campinas - SP 13067 Brasil,-22.888064,-47.144645
1844,Av. Lix da Cunha 2879-2977 ,-22.901767,-47.081583
1855,Avenida Salgado Filho 3587 - Vila Bancaria Guarulhos - SP 07115-000 Brasil,-23.439028,-46.536849
1865,R. Corypheu de Azevedo Marques 587 - Jardim Paraventi Guarulhos - SP 18090-470 Brasil,-23.450058,-46.528339
1908,Av. Penha de Franca 682 - Penha de Franca Sao Paulo - SP 36060-000 Brasil,-23.520779,-46.546556
1873,Avenida Onze de Agosto 2,-23.465359,-46.536017
1900,Rua Guaiauna 353 - Guaiauna Sao Paulo - SP 03631-000 Brasil,-23.530746,-46.549952
1912,Av. Gabriela Mistral 750 - Jardim Jau (Zona Leste) Sao Paulo - SP 03701-001 Brazil,-23.514116,-46.550424
1874,Av. Tiradentes 709 - Jardim Santa Edwirges Guarulhos - SP 16400-050 Brasil,-23.466861,-46.535435
1916,Avenida Guarulhos 3359 -  Pte. Grande Guarulhos - SP 07031-000,-23.49625,-46.549367
1848,R. Maria Vilaca da Silva 365 - Jardim Adriana Guarulhos - SP 07135-000 Brasil,-23.427855,-46.527707
1864,Av. Barber Greene 765 - Jardim Paraventi Guarulhos - SP 07123-096 Brasil,-23.448655,-46.529871
1856,Av. Salgado Filho 3411 - Vila Rio de Janeiro Guarulhos - SP 07115-000 Brasil,-23.440485,-46.536421
1915,Av. Guarulhos 3837 - Pte. Grande Guarulhos - SP 07022-020 Brasil,-23.499467,-46.551116
1917,Avenida Guarulhos 3201,-23.494957,-46.548156
1852,Av. Rio de Janeiro 457 - Vila Bremen Guarulhos - SP 07124 Brasil,-23.433703,-46.532686
1867,Av. Papa Joao XXIII 64 - Cidade Maia Guarulhos - SP 07114-100 Brasil,-23.454806,-46.528791
1868,Av. Papa Joao XXIII 438 - Parque Renato Maia Guarulhos - SP 07114-100 Brasil,-23.454046,-46.532546
1846,R. Dr. Ricardo Ferreira dos Reis 256 - Jardim Adriana Guarulhos - SP 07135-370 Brasil,-23.421763,-46.52338
1851,Av. Rio de Janeiro 997 - Vila Bremen Guarulhos - SP 07124-500 Brasil,-23.431574,-46.528203
1841,Terminal da Bosch - Jardim Garcia Campinas - SP 13063 Brasil,-22.899852,-47.113763
93627,Rod. Waldomiro Correa de Camargo 188 - Centro Sorocaba - SP 18016-460 Brasil,-23.490438,-47.44116
1872,Rua Jardim Alegre 349,-23.463892,-46.537044
1879,Av. Guarulhos 1356 - Gopouva Guarulhos - SP 07025-000 Brasil,-23.480395,-46.540049
1861,Avenida Nova America 728,-23.441021,-46.530966
1913,Av. Gabriela Mistral 1124 - Jardim Jau (Zona Leste) Sao Paulo - SP 03701-001 Brasil,-23.511259,-46.550905
1914,Av. Guarulhos 4329 - Gopouva Guarulhos - SP 07031-001 Brasil,-23.503272,-46.551718
1858,Av. Jovita 226 - Jardim Iporanga Guarulhos - SP 07124-150 Brasil,-23.441237,-46.533948
1907,Praca Oito de Setembro 48 - Penha de Franca Sao Paulo - SP 03606-030 Brasil,-23.52419,-46.548312
91920,Av. Monteiro Lobato 10179 - Balneario de Birigui Mongagua - SP 11730-000 Brasil,-24.128757,-46.690693
1880,Avenida Guarulhos 1514 - Vila Augusta Guarulhos - SP 07025-050 Brazil,-23.481578,-46.541516
30044,R. Martim Lobo De Saldanha 27 - Jardim Russo Sao Paulo - SP 02675-031 Brasil,-23.406657,-46.766617
90959,R. Cristina Montanari Roveri 162 - Vila Faustina II Valinhos - SP 13271-380 Brasil,-22.961968,-47.004558
95488,R. Giusepe Sacco 270-286 - Bandeiras - Bandeiras Osasco - SP 06160-380 Brasil,-23.553423,-46.81656
43146,Av. Jose Andre de Moraes 565 - Jardim Monte Alegre Taboao da Serra - SP 06755-260 Brasil,-23.602635,-46.76656
2002,Rua Monte Alegre (Oposto ao n 30),-23.597518,-46.82176
1998,Estr. Q.ta do Morro 830 - Jardim Santo Antonio Embu das Artes - SP 68355-520 Brasil,-23.670225,-46.848843
1987,Av. Helio Ossamu Daikuara 305 - Jardim Vista Alegre Embu das Artes - SP 06807-010 Brasil,-23.633456,-46.824534
1954,Estrada Presidente Juscelino Kubitscheck de Oliveira 3429-3509,-23.450078,-46.407709
1991,Avenida Helio Ossamu Daikuara 265 - Jardim de Lourdes Embu das Artes - SP 06814 Brasil,-23.640158,-46.836557
1988,Av. Helio Ossamu Daikuara 665 - Jardim Vista Alegre Embu das Artes - SP 06807-000 Brasil,-23.63458,-46.827059
1983, Rodovia  Regis Bittencourt km 2756 sul - Parada Jardim Mimas ,-23.621793,-46.813701
1994,R. Marcelino Pinto Teixeira 457 ( n oposto ao 529) - Parque Industrial Ramos de Freitas Embu das Artes - SP 06816-000 Brasil,-23.641518,-46.835842
1989,Av. Helio Ossamu Daikuara 1058 - Jardim Vista Alegre Embu das Artes - SP 06818-200 Brasil,-23.635288,-46.831075
1986, Rodovia Regis Bittencourt km 277 sul,-23.631253,-46.821569
2003,Estrada Municipal Walter Steurer - Colegio e Faculdade Mario Schenberg,-23.599421,-46.821922
1985, Rodovia Regis Bittencourt km 2764 sul ,-23.627105,-46.818122
1993,Estr. Santa Barbara 5 - Jardim Santa Barbara Embu das Artes - SP 06817-110 Brasil,-23.640366,-46.831929
1955,Estrada Presidente Juscelino Kubitscheck de Oliveira 3095-3111,-23.453299,-46.406699
1939,Rua Treze de Maio 142,-23.456084,-46.565729
93076,R. Serra Redonda 228 - Cidade Serodio Guarulhos - SP 07151-420 Brasil,-23.413337,-46.458886
91921,SP-055 km 3144 oeste - Balneario Florida Mirim Mongagua - SP 11730-000 Brasil,-24.136873,-46.706385
1942,Rua dos Coqueiros 74,-23.451767,-46.564107
1947,Avenida Neusa Luongo 254,-23.441775,-46.55764
1957,Estrada Presidente Juscelino Kubitschek De Oliveira 2247 Pimentas Guarulhos - Sao Paulo 02245 Brasil - Pimentas Guarulhos - SP 07252-000 Brasil,-23.458721,-46.410917
1936,Rua Vicente Melro 726,-23.462167,-46.565413
1728,Avenida Guarulhos 2161,-23.486383,-46.544024
1944,Av. Sao Luiz 101,-23.447472,-46.557207
1945,R. Piaui 146 - Vila Rosalia Guarulhos - SP 07072-210 Brazil,-23.445578,-46.556995
1946,Avenida Neusa Luongo 40,-23.443632,-46.55744
1948,Avenida Saulle Pagnoncelli 397-589,-23.440885,-46.556454
1940,R. Treze de Maio 324 - Vila Galvao Guarulhos - SP 07071-050 Brasil,-23.454659,-46.566434
1949,Avenida Saule Pagnonceli 259,-23.440414,-46.554939
1941,Rua Sao Mauricio 116,-23.452495,-46.566418
1958,Estrada Juscelino Kubtischek de Oliveira 2049,-23.460179,-46.41226
1953,Estrada Presidente Juscelino Kubitscheck de Oliveira 3591-3639,-23.448137,-46.408027
1961,Estr. Pres. Juscelino Kubitschek de Oliveira 1049 - Jardim dos Pimentas Guarulhos - SP 07272-341 Brazil,-23.465722,-46.419574
1952,Estrada Juscelino Kubtischek de Oliveira 4078,-23.444213,-46.408015
1959,Estrada Presidente Juscelino Kubitscheck de Oliveira 1701-1843,-23.462709,-46.414463
1924,Rua Moras 42,-23.458919,-46.549771
1925,Rua Moras 328,-23.459069,-46.55253
1926,Rua Moras 526,-23.459185,-46.554295
1927,R. Sao Jose 460,-23.45971,-46.557411
1928,Rua Sao Jose 464,-23.460945,-46.55833
94220,Tv. Agostinho Schiavo - Ponto Final da Linha 429 - Laranjeiras Caieiras - SP 07745-160 Brasil,-23.3796,-46.722174
1962,Rua Bela Vista 729,-23.464895,-46.421636
1963,Rua Riachao Jacuipe 656,-23.462673,-46.424669
1964,Rua Riachao Jacuipe 646,-23.460747,-46.425731
1965,Rua Sao Bartolomeu 186,-23.458659,-46.428578
1966,Rua Centenario 214,-23.457737,-46.426933
1967,Rua Centenario 443,-23.457528,-46.424609
1968,Rua Eldridge Gastroat 543,-23.448851,-46.42581
1969,Rua Maria Isabel Rezende 418,-23.448378,-46.427365
1970,Rua Maria Isabel Rezende 533,-23.448243,-46.426288
1922, Stella Maris,-23.47592,-46.547484
1923,Avenida Torres Tibagy 90,-23.465734,-46.546697
1929,Avenida Emilio Ribas 2680-2702,-23.46162,-46.558013
1930, Av. Emilio Ribas 2431,-23.462616,-46.55563
1950,Rua Urania 58,-23.435542,-46.549383
1951,Avenida Alexandre Grandisoli 279,-23.434698,-46.548446
2023,Rua Godofredo Novaes Ferraz de Vasconcelos - Sao Paulo 08517 Brasil - Vila Central Ferraz de Vasconcelos - SP 08529-320 Brasil,-23.542883,-46.371733
2083,Estr. do Bandeirante 1335 - Parada Bandeirantes - Vila Andrea Ferraz de Vasconcelos - SP 08536-440 Brasil,-23.535603,-46.390992
2054,Rua Dr. Luiz Aires - FATEC/ETEC - Artur Alvim Sao Paulo - SP 08210 Brasil,-23.543174,-46.468527
2057,Rua Americo Salvador Novelli 301 - Parada Flores Do Piaui - Itaquera Sao Paulo - SP 08210-090 Brasil,-23.539212,-46.454807
2019,Rua Manoel de Abreu Ferraz de Vasconcelos - Sao Paulo 08545 Brasil - Vila Santa Margarida Ferraz de Vasconcelos - SP 08544-070 Brasil,-23.52944,-46.370333
2088,Rua Tito Temporim Ferraz de Vasconcelos - Sao Paulo 08544 Brasil - Ferraz de Vasconcelos SP 08545-030 Brasil,-23.532513,-46.366102
2012,Avenida Mauro Pitel 20 Poa - Sao Paulo 08554 Brasil - Cidade Kemel Poa - SP 08554-040 Brasil,-23.515675,-46.365099
2013,Rua Sen. Jose Ermirio de Morais 267 - Jardim Luiz Mauro Ferraz de Vasconcelos - SP Brasil,-23.515201,-46.370437
2020,R. Manoel de Abreu 291 - Vila Santa Margarida Ferraz de Vasconcelos - SP 08543-350 Brasil,-23.529425,-46.366452
2017,R. dos Ipes 177 - Vila Santa Margarida Ferraz de Vasconcelos - SP 08543-180 Brasil,-23.523679,-46.370826
2018,Rua dos Ipes Ferraz de Vasconcelos - Sao Paulo 08543 Brasil - Vila Santa Margarida Ferraz de Vasconcelos - SP 08543-180 Brasil,-23.525194,-46.370754
2030,Estr. do Lageado Velho 1369 - Guaianases Sao Paulo - SP 08451-000 Brasil,-23.533483,-46.396503
2021,Rua Vitoria Benati Ferraz de Vasconcelos - Sao Paulo 08544 Brasil - Ferraz de Vasconcelos SP 08545-030 Brasil,-23.532998,-46.366348
2025,Estr. do Bandeirante 500 - Jardim Santa Rosa Ferraz de Vasconcelos - SP 08536-440 Brasil,-23.538003,-46.383228
2006,Rua dos Esquilos 809 ,-23.611965,-46.832629
2005,Estrada dos Galdinos - Esquina com Rua Beta,-23.60333,-46.82662
2007,Avenida Joao Paulo Ablas 1989 - Condominio dos Sabias,-23.614476,-46.838372
2010,Avenida Central (Oposto ao n 109),-23.598913,-46.841046
2059,R. Augusto Carlos Bauman 840 - Itaquera Sao Paulo - SP 08215-263 Brasil,-23.532057,-46.446945
2026,Estr. do Bandeirante 1020 - Parada Jardim Rosana - Jardim Angelina Ferraz de Vasconcelos - SP 08536-440 Brasil,-23.5363,-46.387253
2075,R. Salvador Gianetti 648 - Vila Princesa Isabel Sao Paulo - SP 08410-000 Brasil,-23.542848,-46.415292
2076,R. Salvador Gianetti 1156 - Guaianases Sao Paulo - SP 08410-000 Brasil,-23.543913,-46.410974
2078,Estr. do Lageado Velho 50 - Guaianases Sao Paulo - SP 08451-000 Brasil,-23.538714,-46.407551
2079,Rua Serra das Araras 500 - Vila Iolanda(Lajeado) Sao Paulo - SP 08451-050 Brasil,-23.535843,-46.40253
2081,Estr. do Lageado Velho 594 - Jardim Augusta Sao Paulo - SP 08451-056 Brasil,-23.53368,-46.396861
2085,Rua Santos Dumont 1461 - Tanquinho Ferraz de Vasconcelos - SP 08531-100 Brasil,-23.541649,-46.372918
2087,R. Tito Temporim 125 - Jardim Sao Joao Ferraz de Vasconcelos - SP 08545-042 Brasil,-23.53535,-46.366056
2056,Av. Itaquera 9044 - Aricanduva Sao Paulo - SP 08295-001 Brasil,-23.542151,-46.458104
2092,R. Jorge Chamas 2-64 Poa - SP Brasil - Poa SP 08554-030 Brasil,-23.515536,-46.36483
2024,R. Antonio Silvestre Leite 26 - Tanquinho Ferraz de Vasconcelos - SP 08531-230 Brasil,-23.542182,-46.374896
2080,Estrada do Lageado Velho 994,-23.534518,-46.400026
30038,Rua Silveirania 42 - Vila Perus Sao Paulo - SP 05211-060 Brasil,-23.408984,-46.76083
2008,Avenida Joao Paulo Ablas 1349,-23.609036,-46.839453
91922,Av. Alberto Simoes 1355 - Cidade Anchieta Itanhaem - SP 11740-000 Brasil,-24.175411,-46.782402
2031,Estr. do Lageado Velho 595 - Jardim Augusta Sao Paulo - SP 08451-055 Brasil,-23.534035,-46.398929
845,Av. Alphaville 1600 - Alphaville Res. Plus Barueri - SP 06471-002 Brasil,-23.486734,-46.85601
2032,Estr. Do Lageado Velho 869 - Lageado Sao Paulo - SP 08451-000 Brasil,-23.534951,-46.401197
2034,Estrada do Lageado Velho 165,-23.538185,-46.406978
2157,Avenida Indianopolis 1267 - Esporte Clube Sirio,-23.609156,-46.652003
2150,Av. Indianopolis 2751 - Planalto Paulista Sao Paulo - SP 04062-003 Brasil,-23.621932,-46.646687
30041,R. Br. Geraldo De Rezende 198 - Jardim Russo Sao Paulo - SP 05205-270 Brasil,-23.409666,-46.765018
2153,Avenida Indianopolis 2077,-23.6162,-46.64908
2102,Estrada Caucaia do Alto (Oposto ao n 6498),-23.65977,-47.004028
2118,Estrada Caucaia do Alto (Oposto ao n 6498),-23.65999,-47.004288
2177,Parada 2 - Pca. Andrea Doria - Santo Amaro Sao Paulo - SP 04753-050 Brasil,-23.655853,-46.70144
2099,Estrada de Caucaia do Alto 4250,-23.64212,-46.990376
2093,Av. Kemel Addas 262 - Cidade Kemel Poa - SP 08554-060 Brazil,-23.513343,-46.365912
2120,Estrada Caucaia do Alto (Oposto ao n 4990),-23.64898,-46.995365
2156,Avenida Indianopolis 1371,-23.610455,-46.65145
7248,Rua Prof. Antonio Seixas Leite Ribeiro 229 - Baeta Neves Sao Bernardo do Campo - SP 09180-110 Brasil,-23.70385,-46.521331
2117,Estrada Caucaia do Alto 389,-23.662284,-47.007684
2124,Estrada Caucaia do Alto (Oposto ao n 3462),-23.639545,-46.989207
2125,Estrada Caucaia do Alto 3021,-23.635832,-46.988997
2100,Estrada Caucaia do Alto (Oposto ao n 4345),-23.644694,-46.992191
2101,Estrada Caucaia do Alto (Oposto ao n 4433),-23.646443,-46.993778
2123,Estrada Caucaia do Alto (Oposto n 3668),-23.641881,-46.989737
2152,Avenida Indianopolis 2343,-23.618785,-46.648005
2155,Avenida Indianopolis 1597 - E. E. Professor Alberto Levi,-23.612256,-46.650704
2122,Estrada Caucaia do Alto 4305,-23.644585,-46.991685
2127,Estrada Caucaia do Alto 1751,-23.626373,-46.982026
2107,Terminal Municipal Vereador Benedito Lopes - Caucaia do Alto,-23.687285,-47.020507
2103,Estrada Caucaia do Alto 350,-23.661814,-47.007846
2115,Estrada Caucaia do Alto (Oposto ao n 8700),-23.675805,-47.014716
2128,Estrada Caucaia do Alto 1047,-23.622854,-46.976992
2129,Estrada Caucaia do Alto (Oposto ao n 536),-23.61959,-46.9743
2095,Estrada Caucaia do Alto 951,-23.619801,-46.974759
2104,Estrada Caucaia do Alto 6636,-23.664808,-47.008529
2154,Avenida Indianopolis 1819,-23.614196,-46.649905
2114,Estrada Caucaia do Alto 8679,-23.677799,-47.014856
2151,Av. Indianopolis 2509 - Planalto Paulista Sao Paulo - SP 04063-005 Brasil,-23.619974,-46.647508
2106,Estrada Caucaia do Alto (Oposto ao n 7579),-23.669479,-47.011141
2149,Avenida Indianopolis 3145 - Clube Esportivo Helvetia,-23.624899,-46.645465
2147,Avenida Jabaquara (Oposto ao n3048) - Hipermercado Big,-23.629028,-46.645209
2110,Aeroporto Internacional de Sao Paulo (Terminal de Passageiros 1),-23.429758,-46.489717
92664,Rua Dr. Basilio Fazzi 366 - Companhia Fazenda Belem Franco da Rocha - SP 07802-190 Brasil,-23.328437,-46.728077
2111,Praca Comandante Linneu Gomes 373 - Santo Amaro Sao Paulo - SP 04626-020 Brasil,-23.626354,-46.660014
94237,R. Ernesto 137-237 - Vila Rosina Caieiras - Sp 07700-000 Brasil - Vila Rosina Caieiras - SP 07749-220 Brasil,-23.387278,-46.739713
95489,Alameda Rio Negro 1283,-23.494583,-46.849103
2216,Estrada do M'Boi Mirim 10579 - Vila Calu Sao Paulo - SP 04961-150 Brasil,-23.736483,-46.789038
2221,Rua Crispim 733 - Cidade Sao Pedro Itapecerica da Serra - SP 06866-170 Brasil,-23.754809,-46.792838
37316,Av. Aracaju 576 - Jardim Santa Rita Guarulhos - SP 07143-220 Brasil,-23.42235,-46.501203
2200,Estrada do M'Boi Mirim 5708 - Parque do Lago Sao Paulo - SP 04948-030 Brasil,-23.692791,-46.778456
2213,Estrada do M'Boi Mirim 9832 - Parque Universitario Espirita Sao Paulo - SP 04960-010 Brasil,-23.72871,-46.786218
2210,Estrada do M'Boi Mirim 8946,-23.720408,-46.785442
2208,Estrada do M'Boi Mirim 9976,-23.715506,-46.782938
2227,R. Marajo 1 - Jardim Santa Julia Itapecerica da Serra - SP 06867-440 Brasil,-23.757671,-46.807979
2206,Estr. Do M Boi Mirim 7050 - Parque Bologne Sao Paulo - SP 04941-175 Brasil,-23.70691,-46.784497
2215,Estrada do M'Boi Mirim 12003- Jardim Capela Sao Paulo - SP 04960-010 Brasil,-23.733982,-46.787553
2211,Estrada do M'Boi Mirim 8899,-23.723009,-46.785424
2201,Estrada do M'Boi Mirim 5788 - Parque do Lago Sao Paulo - SP 04948-030 Brasil,-23.694591,-46.779969
2246,Estrada Tenente Marques4900 - Polvilho Santana de Parnaiba - SP Brasil,-23.409196,-46.891347
2203,Estrada do M'Boi Mirim 6402 - Parque do Lago Sao Paulo - SP 04948-030 Brasil,-23.699297,-46.780291
